{"type":"FeatureCollection","features":[{"type":"Feature","geometry":{"type":"Point","coordinates":[110.46645031638135,19.2424815325446]},"properties":{"name":"琼海市"}},{"type":"Feature","geometry":{"type":"Point","coordinates":[110.80899320139542,19.549807095687342]},"properties":{"name":"文昌市"}},{"type":"Feature","geometry":{"type":"Point","coordinates":[109.51960756034768,18.775023167856038]},"properties":{"name":"五指山市"}},{"type":"Feature","geometry":{"type":"Point","coordinates":[110.39503129095975,18.794506197933345]},"properties":{"name":"万宁市"}},{"type":"Feature","geometry":{"type":"Point","coordinates":[108.63836115758878,19.100624274967196]},"properties":{"name":"东方市"}},{"type":"Feature","geometry":{"type":"Point","coordinates":[110.10364893021747,19.364312054316187]},"properties":{"name":"屯昌县"}},{"type":"Feature","geometry":{"type":"Point","coordinates":[109.84127993198919,19.036084980910196]},"properties":{"name":"琼中黎族苗族自治县"}},{"type":"Feature","geometry":{"type":"Point","coordinates":[110.01139247531215,19.738434272761715]},"properties":{"name":"澄迈县"}},{"type":"Feature","geometry":{"type":"Point","coordinates":[109.68837861560472,19.91218629069403]},"properties":{"name":"临高县"}},{"type":"Feature","geometry":{"type":"Point","coordinates":[109.45353721100452,19.22225366493649]},"properties":{"name":"白沙黎族自治县"}},{"type":"Feature","geometry":{"type":"Point","coordinates":[109.0510021332534,19.25078766282973]},"properties":{"name":"昌江黎族自治县"}},{"type":"Feature","geometry":{"type":"Point","coordinates":[110.04151359349419,18.503476017647202]},"properties":{"name":"陵水黎族自治县"}},{"type":"Feature","geometry":{"type":"Point","coordinates":[109.69706392736265,18.644109725048363]},"properties":{"name":"保亭黎族苗族自治县"}},{"type":"Feature","geometry":{"type":"Point","coordinates":[109.18088076045514,18.7465403492901]},"properties":{"name":"乐东黎族自治县"}},{"type":"Feature","geometry":{"type":"Point","coordinates":[110.32476527234513,19.69898812478394]},"properties":{"name":"定安县"}}]}