{"type": "FeatureCollection", "name": "点", "features": [{"type": "Feature", "properties": {"name": "长葛市", "QUHUADAIMA": "411082", "Location": 6, "Alignment": 1}, "geometry": {"type": "Point", "coordinates": [113.77458916661419, 34.21734788967038]}}, {"type": "Feature", "properties": {"name": "禹州市", "QUHUADAIMA": "411081", "Location": 6, "Alignment": 1}, "geometry": {"type": "Point", "coordinates": [113.47223265611456, 34.16079048758177]}}, {"type": "Feature", "properties": {"name": "鄢陵县", "QUHUADAIMA": "411024", "Location": 6, "Alignment": 1}, "geometry": {"type": "Point", "coordinates": [114.1991360841516, 34.10101319156613]}}, {"type": "Feature", "properties": {"name": "建安区", "QUHUADAIMA": "411003", "Location": 4, "Alignment": 3}, "geometry": {"type": "Point", "coordinates": [113.8228124004812, 34.123509596129715]}}, {"type": "Feature", "properties": {"name": "襄城县", "QUHUADAIMA": "411025", "Location": 6, "Alignment": 1}, "geometry": {"type": "Point", "coordinates": [113.48059612654305, 33.84900891847102]}}, {"type": "Feature", "properties": {"name": "魏都区", "QUHUADAIMA": "411002", "Location": 6, "Alignment": 1}, "geometry": {"type": "Point", "coordinates": [113.82057902238165, 34.025633876700766]}}]}