{"type": "FeatureCollection", "name": "点", "features": [{"type": "Feature", "properties": {"name": "凭祥市", "QUHUADAIMA": "451481", "Location": 6, "Alignment": 1}, "geometry": {"type": "Point", "coordinates": [106.75528083651507, 22.11022399227973]}}, {"type": "Feature", "properties": {"name": "天等县", "QUHUADAIMA": "451425", "Location": 6, "Alignment": 1}, "geometry": {"type": "Point", "coordinates": [107.14162083255886, 23.08043110307832]}}, {"type": "Feature", "properties": {"name": "扶绥县", "QUHUADAIMA": "451421", "Location": 6, "Alignment": 1}, "geometry": {"type": "Point", "coordinates": [107.91107137635888, 22.63627757689658]}}, {"type": "Feature", "properties": {"name": "宁明县", "QUHUADAIMA": "451422", "Location": 6, "Alignment": 1}, "geometry": {"type": "Point", "coordinates": [107.06563727630314, 22.137030057735398]}}, {"type": "Feature", "properties": {"name": "龙州县", "QUHUADAIMA": "451423", "Location": 6, "Alignment": 1}, "geometry": {"type": "Point", "coordinates": [106.85312968330855, 22.34655029919899]}}, {"type": "Feature", "properties": {"name": "大新县", "QUHUADAIMA": "451424", "Location": 6, "Alignment": 1}, "geometry": {"type": "Point", "coordinates": [107.19870450670874, 22.834321497675962]}}, {"type": "Feature", "properties": {"name": "江州区", "QUHUADAIMA": "451402", "Location": 6, "Alignment": 1}, "geometry": {"type": "Point", "coordinates": [107.35248940352396, 22.408802480256966]}}]}