{"type": "FeatureCollection", "name": "点", "features": [{"type": "Feature", "properties": {"name": "北流市", "QUHUADAIMA": "450981", "Location": 6, "Alignment": 1}, "geometry": {"type": "Point", "coordinates": [110.3513006461104, 22.7071568362269]}}, {"type": "Feature", "properties": {"name": "陆川县", "QUHUADAIMA": "450922", "Location": 6, "Alignment": 1}, "geometry": {"type": "Point", "coordinates": [110.26735042235782, 22.329625148664462]}}, {"type": "Feature", "properties": {"name": "博白县", "QUHUADAIMA": "450923", "Location": 6, "Alignment": 1}, "geometry": {"type": "Point", "coordinates": [109.98065658144364, 22.27745648657219]}}, {"type": "Feature", "properties": {"name": "容县", "QUHUADAIMA": "450921", "Location": 6, "Alignment": 1}, "geometry": {"type": "Point", "coordinates": [110.55503794483664, 22.85884804431646]}}, {"type": "Feature", "properties": {"name": "兴业县", "QUHUADAIMA": "450924", "Location": 6, "Alignment": 1}, "geometry": {"type": "Point", "coordinates": [109.87620770308632, 22.749970414840803]}}, {"type": "Feature", "properties": {"name": "玉州区", "QUHUADAIMA": "450902", "Location": 6, "Alignment": 1}, "geometry": {"type": "Point", "coordinates": [110.15200290724152, 22.629772819644423]}}, {"type": "Feature", "properties": {"name": "福绵区", "QUHUADAIMA": "450903", "Location": 5, "Alignment": 2}, "geometry": {"type": "Point", "coordinates": [110.05092516562944, 22.585114495343095]}}]}