{"type": "FeatureCollection", "name": "点", "features": [{"type": "Feature", "properties": {"name": "钟山县", "QUHUADAIMA": "451122", "Location": 4, "Alignment": 3}, "geometry": {"type": "Point", "coordinates": [111.30481686448495, 24.52938595564831]}}, {"type": "Feature", "properties": {"name": "富川瑶族自治县", "QUHUADAIMA": "451123", "Location": 5, "Alignment": 5}, "geometry": {"type": "Point", "coordinates": [111.27758671660727, 24.820548684305745]}}, {"type": "Feature", "properties": {"name": "昭平县", "QUHUADAIMA": "451121", "Location": 6, "Alignment": 1}, "geometry": {"type": "Point", "coordinates": [110.81462549707615, 24.17282062471512]}}, {"type": "Feature", "properties": {"name": "平桂区", "QUHUADAIMA": "451103", "Location": 6, "Alignment": 1}, "geometry": {"type": "Point", "coordinates": [111.48370083542922, 24.455941119419368]}}, {"type": "Feature", "properties": {"name": "八步区", "QUHUADAIMA": "451102", "Location": 6, "Alignment": 1}, "geometry": {"type": "Point", "coordinates": [111.5492115955484, 24.40898057057027]}}]}