{"type":"FeatureCollection","features":[{"type":"Feature","geometry":{"type":"Point","coordinates":[112.9234663508606,35.793092677082186]},"properties":{"name":"高平市","QUHUADAIMA":"140581","Location":6,"Alignment":1}},{"type":"Feature","geometry":{"type":"Point","coordinates":[112.79795998805245,35.467804568393156]},"properties":{"name":"泽州县","QUHUADAIMA":"140525","Location":7,"Alignment":3}},{"type":"Feature","geometry":{"type":"Point","coordinates":[113.28038150574783,35.77571215491016]},"properties":{"name":"陵川县","QUHUADAIMA":"140524","Location":6,"Alignment":1}},{"type":"Feature","geometry":{"type":"Point","coordinates":[112.18154100891489,35.69180796125265]},"properties":{"name":"沁水县","QUHUADAIMA":"140521","Location":6,"Alignment":1}},{"type":"Feature","geometry":{"type":"Point","coordinates":[112.42600298088338,35.47902108625663]},"properties":{"name":"阳城县","QUHUADAIMA":"140522","Location":6,"Alignment":1}},{"type":"Feature","geometry":{"type":"Point","coordinates":[112.8446314371148,35.50467272628629]},"properties":{"name":"城区","QUHUADAIMA":"140502","Location":6,"Alignment":1}}]}