{"type": "FeatureCollection", "name": "点", "features": [{"type": "Feature", "properties": {"name": "格尔木市", "QUHUADAIMA": "632801", "Location": 6, "Alignment": 1}, "geometry": {"type": "Point", "coordinates": [94.90217715590127, 36.4030408399548]}}, {"type": "Feature", "properties": {"name": "德令哈市", "QUHUADAIMA": "632802", "Location": 6, "Alignment": 1}, "geometry": {"type": "Point", "coordinates": [97.36861105695237, 37.36529791135218]}}, {"type": "Feature", "properties": {"name": "乌兰县", "QUHUADAIMA": "632821", "Location": 4, "Alignment": 3}, "geometry": {"type": "Point", "coordinates": [98.47910083817803, 36.9313440023811]}}, {"type": "Feature", "properties": {"name": "都兰县", "QUHUADAIMA": "632822", "Location": 4, "Alignment": 3}, "geometry": {"type": "Point", "coordinates": [98.09457125065698, 36.30119646560898]}}, {"type": "Feature", "properties": {"name": "天峻县", "QUHUADAIMA": "632823", "Location": 6, "Alignment": 1}, "geometry": {"type": "Point", "coordinates": [99.02739702320237, 37.29841865682947]}}, {"type": "Feature", "properties": {"name": "茫崖市", "QUHUADAIMA": "632803", "Location": 1, "Alignment": 3}, "geometry": {"type": "Point", "coordinates": [90.92303150816994, 38.27742808049214]}}]}