{"type": "FeatureCollection", "name": "点", "features": [{"type": "Feature", "properties": {"name": "肥城市", "QUHUADAIMA": "370983", "Location": 8, "Alignment": 2}, "geometry": {"type": "Point", "coordinates": [116.77136780181566, 36.184254865248874]}}, {"type": "Feature", "properties": {"name": "新泰市", "QUHUADAIMA": "370982", "Location": 6, "Alignment": 1}, "geometry": {"type": "Point", "coordinates": [117.76393385273902, 35.90798337883192]}}, {"type": "Feature", "properties": {"name": "宁阳县", "QUHUADAIMA": "370921", "Location": 6, "Alignment": 1}, "geometry": {"type": "Point", "coordinates": [116.79506855757108, 35.762551819738874]}}, {"type": "Feature", "properties": {"name": "东平县", "QUHUADAIMA": "370923", "Location": 1, "Alignment": 3}, "geometry": {"type": "Point", "coordinates": [116.46677433369358, 35.92940306147155]}}, {"type": "Feature", "properties": {"name": "岱岳区", "QUHUADAIMA": "370911", "Location": 4, "Alignment": 3}, "geometry": {"type": "Point", "coordinates": [117.04679017931605, 36.186840940541984]}}, {"type": "Feature", "properties": {"name": "泰山区", "QUHUADAIMA": "370902", "Location": 6, "Alignment": 1}, "geometry": {"type": "Point", "coordinates": [117.13337624526196, 36.18663895502734]}}]}