{"type": "FeatureCollection", "name": "点", "features": [{"type": "Feature", "properties": {"name": "博兴县", "QUHUADAIMA": "371625", "Location": 6, "Alignment": 1}, "geometry": {"type": "Point", "coordinates": [118.14115862719756, 37.14007454495611]}}, {"type": "Feature", "properties": {"name": "惠民县", "QUHUADAIMA": "371621", "Location": 6, "Alignment": 1}, "geometry": {"type": "Point", "coordinates": [117.50863456858957, 37.48189651397126]}}, {"type": "Feature", "properties": {"name": "阳信县", "QUHUADAIMA": "371622", "Location": 6, "Alignment": 1}, "geometry": {"type": "Point", "coordinates": [117.58324058639194, 37.64489408912597]}}, {"type": "Feature", "properties": {"name": "无棣县", "QUHUADAIMA": "371623", "Location": 6, "Alignment": 1}, "geometry": {"type": "Point", "coordinates": [117.6043466835051, 37.739069523041216]}}, {"type": "Feature", "properties": {"name": "邹平市", "QUHUADAIMA": "371681", "Location": 6, "Alignment": 1}, "geometry": {"type": "Point", "coordinates": [117.73381380230798, 36.88311498110097]}}, {"type": "Feature", "properties": {"name": "滨城区", "QUHUADAIMA": "371602", "Location": 4, "Alignment": 3}, "geometry": {"type": "Point", "coordinates": [118.0205600732517, 37.376669521169774]}}, {"type": "Feature", "properties": {"name": "沾化区", "QUHUADAIMA": "371603", "Location": 6, "Alignment": 1}, "geometry": {"type": "Point", "coordinates": [118.09137189546372, 37.700401340750105]}}]}