{"type": "FeatureCollection", "name": "点", "features": [{"type": "Feature", "properties": {"name": "蓬莱市", "QUHUADAIMA": "370684", "Location": 6, "Alignment": 1}, "geometry": {"type": "Point", "coordinates": [120.75826100303435, 37.80818565178518]}}, {"type": "Feature", "properties": {"name": "栖霞市", "QUHUADAIMA": "370686", "Location": 6, "Alignment": 1}, "geometry": {"type": "Point", "coordinates": [120.83236490911051, 37.30012249009518]}}, {"type": "Feature", "properties": {"name": "招远市", "QUHUADAIMA": "370685", "Location": 6, "Alignment": 1}, "geometry": {"type": "Point", "coordinates": [120.40005740900753, 37.35863626585529]}}, {"type": "Feature", "properties": {"name": "龙口市", "QUHUADAIMA": "370681", "Location": 6, "Alignment": 1}, "geometry": {"type": "Point", "coordinates": [120.4959973319484, 37.63237902507644]}}, {"type": "Feature", "properties": {"name": "莱州市", "QUHUADAIMA": "370683", "Location": 6, "Alignment": 1}, "geometry": {"type": "Point", "coordinates": [119.94434716491735, 37.17465737017005]}}, {"type": "Feature", "properties": {"name": "莱阳市", "QUHUADAIMA": "370682", "Location": 6, "Alignment": 1}, "geometry": {"type": "Point", "coordinates": [120.71216006407903, 36.977935409870945]}}, {"type": "Feature", "properties": {"name": "海阳市", "QUHUADAIMA": "370687", "Location": 6, "Alignment": 1}, "geometry": {"type": "Point", "coordinates": [121.16652940293757, 36.77647099593265]}}, {"type": "Feature", "properties": {"name": "长岛县", "QUHUADAIMA": "370634", "Location": 6, "Alignment": 1}, "geometry": {"type": "Point", "coordinates": [120.73786780855565, 37.91952586963678]}}, {"type": "Feature", "properties": {"name": "莱山区", "QUHUADAIMA": "370613", "Location": 8, "Alignment": 2}, "geometry": {"type": "Point", "coordinates": [121.44941611531286, 37.45264047473095]}}, {"type": "Feature", "properties": {"name": "牟平区", "QUHUADAIMA": "370612", "Location": 8, "Alignment": 2}, "geometry": {"type": "Point", "coordinates": [121.60058562176869, 37.38547113528742]}}, {"type": "Feature", "properties": {"name": "福山区", "QUHUADAIMA": "370611", "Location": 4, "Alignment": 3}, "geometry": {"type": "Point", "coordinates": [121.26076325225313, 37.49426953543119]}}, {"type": "Feature", "properties": {"name": "芝罘区", "QUHUADAIMA": "370602", "Location": 8, "Alignment": 2}, "geometry": {"type": "Point", "coordinates": [121.3887364860282, 37.534068228409055]}}]}