{"type": "FeatureCollection", "name": "点", "features": [{"type": "Feature", "properties": {"name": "临海市", "QUHUADAIMA": "331082", "Location": 4, "Alignment": 3}, "geometry": {"type": "Point", "coordinates": [121.1176343251281, 28.847804729760245]}}, {"type": "Feature", "properties": {"name": "温岭市", "QUHUADAIMA": "331081", "Location": 6, "Alignment": 1}, "geometry": {"type": "Point", "coordinates": [121.36762631073248, 28.369223451479773]}}, {"type": "Feature", "properties": {"name": "三门县", "QUHUADAIMA": "331022", "Location": 6, "Alignment": 1}, "geometry": {"type": "Point", "coordinates": [121.38024734485342, 29.118657928239806]}}, {"type": "Feature", "properties": {"name": "天台县", "QUHUADAIMA": "331023", "Location": 6, "Alignment": 1}, "geometry": {"type": "Point", "coordinates": [121.03094996570374, 29.13856060740107]}}, {"type": "Feature", "properties": {"name": "仙居县", "QUHUADAIMA": "331024", "Location": 6, "Alignment": 1}, "geometry": {"type": "Point", "coordinates": [120.73760171637919, 28.861284763825516]}}, {"type": "Feature", "properties": {"name": "玉环市", "QUHUADAIMA": "331083", "Location": 8, "Alignment": 2}, "geometry": {"type": "Point", "coordinates": [121.22981692815284, 28.136083660169177]}}, {"type": "Feature", "properties": {"name": "椒江区", "QUHUADAIMA": "331002", "Location": 6, "Alignment": 1}, "geometry": {"type": "Point", "coordinates": [121.43839820580845, 28.67293226407]}}, {"type": "Feature", "properties": {"name": "路桥区", "QUHUADAIMA": "331004", "Location": 8, "Alignment": 2}, "geometry": {"type": "Point", "coordinates": [121.38336950585096, 28.577123917853864]}}, {"type": "Feature", "properties": {"name": "黄岩区", "QUHUADAIMA": "331003", "Location": 7, "Alignment": 3}, "geometry": {"type": "Point", "coordinates": [121.2646913541357, 28.647246150951688]}}]}