{"type": "FeatureCollection", "name": "点", "features": [{"type": "Feature", "properties": {"name": "长兴县", "QUHUADAIMA": "330522", "Location": 6, "Alignment": 1}, "geometry": {"type": "Point", "coordinates": [119.90929513513818, 30.994131170242934]}}, {"type": "Feature", "properties": {"name": "德清县", "QUHUADAIMA": "330521", "Location": 6, "Alignment": 1}, "geometry": {"type": "Point", "coordinates": [119.96655439502325, 30.535864820560953]}}, {"type": "Feature", "properties": {"name": "安吉县", "QUHUADAIMA": "330523", "Location": 6, "Alignment": 1}, "geometry": {"type": "Point", "coordinates": [119.68366219012432, 30.639862182500803]}}, {"type": "Feature", "properties": {"name": "南浔区", "QUHUADAIMA": "330503", "Location": 8, "Alignment": 2}, "geometry": {"type": "Point", "coordinates": [120.43262839609591, 30.879238328987867]}}, {"type": "Feature", "properties": {"name": "吴兴区", "QUHUADAIMA": "330502", "Location": 6, "Alignment": 1}, "geometry": {"type": "Point", "coordinates": [120.12234564534636, 30.86059851608671]}}]}