{"type": "FeatureCollection", "name": "点", "features": [{"type": "Feature", "properties": {"name": "叙州区", "QUHUADAIMA": "511504", "Location": 4, "Alignment": 3}, "geometry": {"type": "Point", "coordinates": [104.53500129670742, 28.691881367487756]}}, {"type": "Feature", "properties": {"name": "屏山县", "QUHUADAIMA": "511529", "Location": 7, "Alignment": 3}, "geometry": {"type": "Point", "coordinates": [104.32991686104485, 28.82982346881271]}}, {"type": "Feature", "properties": {"name": "长宁县", "QUHUADAIMA": "511524", "Location": 6, "Alignment": 1}, "geometry": {"type": "Point", "coordinates": [104.92599527859029, 28.576149644157795]}}, {"type": "Feature", "properties": {"name": "高县", "QUHUADAIMA": "511525", "Location": 8, "Alignment": 2}, "geometry": {"type": "Point", "coordinates": [104.52581300102655, 28.43958232937539]}}, {"type": "Feature", "properties": {"name": "珙县", "QUHUADAIMA": "511526", "Location": 7, "Alignment": 3}, "geometry": {"type": "Point", "coordinates": [104.71795760542308, 28.455121759099363]}}, {"type": "Feature", "properties": {"name": "筠连县", "QUHUADAIMA": "511527", "Location": 6, "Alignment": 1}, "geometry": {"type": "Point", "coordinates": [104.51145307747917, 28.164494308693214]}}, {"type": "Feature", "properties": {"name": "江安县", "QUHUADAIMA": "511523", "Location": 6, "Alignment": 1}, "geometry": {"type": "Point", "coordinates": [105.07218109208384, 28.733598509141068]}}, {"type": "Feature", "properties": {"name": "兴文县", "QUHUADAIMA": "511528", "Location": 6, "Alignment": 1}, "geometry": {"type": "Point", "coordinates": [105.2361749833412, 28.306063511303325]}}, {"type": "Feature", "properties": {"name": "翠屏区", "QUHUADAIMA": "511502", "Location": 6, "Alignment": 1}, "geometry": {"type": "Point", "coordinates": [104.61905581313744, 28.766448933972306]}}, {"type": "Feature", "properties": {"name": "南溪区", "QUHUADAIMA": "511503", "Location": 6, "Alignment": 1}, "geometry": {"type": "Point", "coordinates": [104.98439223891317, 28.844289731519265]}}]}