{"type": "FeatureCollection", "name": "点", "features": [{"type": "Feature", "properties": {"name": "通江县", "QUHUADAIMA": "511921", "Location": 6, "Alignment": 1}, "geometry": {"type": "Point", "coordinates": [107.24580027858191, 31.91457309546563]}}, {"type": "Feature", "properties": {"name": "平昌县", "QUHUADAIMA": "511923", "Location": 6, "Alignment": 1}, "geometry": {"type": "Point", "coordinates": [107.10502557039047, 31.562380588801542]}}, {"type": "Feature", "properties": {"name": "南江县", "QUHUADAIMA": "511922", "Location": 6, "Alignment": 1}, "geometry": {"type": "Point", "coordinates": [106.84264556258084, 32.35627711953489]}}, {"type": "Feature", "properties": {"name": "巴州区", "QUHUADAIMA": "511902", "Location": 6, "Alignment": 1}, "geometry": {"type": "Point", "coordinates": [106.76976814370978, 31.847742547927954]}}, {"type": "Feature", "properties": {"name": "恩阳区", "QUHUADAIMA": "511903", "Location": 7, "Alignment": 3}, "geometry": {"type": "Point", "coordinates": [106.63141767408618, 31.79537716617095]}}]}