{"type": "FeatureCollection", "name": "点", "features": [{"type": "Feature", "properties": {"name": "苍溪县", "QUHUADAIMA": "510824", "Location": 6, "Alignment": 1}, "geometry": {"type": "Point", "coordinates": [105.93714573104228, 31.736610585906355]}}, {"type": "Feature", "properties": {"name": "青川县", "QUHUADAIMA": "510822", "Location": 6, "Alignment": 1}, "geometry": {"type": "Point", "coordinates": [105.23937012671865, 32.586985036846265]}}, {"type": "Feature", "properties": {"name": "剑阁县", "QUHUADAIMA": "510823", "Location": 6, "Alignment": 1}, "geometry": {"type": "Point", "coordinates": [105.5188550085326, 32.28239497204534]}}, {"type": "Feature", "properties": {"name": "旺苍县", "QUHUADAIMA": "510821", "Location": 6, "Alignment": 1}, "geometry": {"type": "Point", "coordinates": [106.28697172349176, 32.23173086604612]}}, {"type": "Feature", "properties": {"name": "朝天区", "QUHUADAIMA": "510812", "Location": 6, "Alignment": 1}, "geometry": {"type": "Point", "coordinates": [105.89364370093581, 32.643596299350406]}}, {"type": "Feature", "properties": {"name": "昭化区", "QUHUADAIMA": "510811", "Location": 8, "Alignment": 2}, "geometry": {"type": "Point", "coordinates": [105.9664111075206, 32.32389354227021]}}, {"type": "Feature", "properties": {"name": "利州区", "QUHUADAIMA": "510802", "Location": 1, "Alignment": 3}, "geometry": {"type": "Point", "coordinates": [105.82501553550931, 32.43818432884229]}}]}