{"type": "FeatureCollection", "name": "点", "features": [{"type": "Feature", "properties": {"name": "江油市", "QUHUADAIMA": "510781", "Location": 6, "Alignment": 1}, "geometry": {"type": "Point", "coordinates": [104.74611314713395, 31.774667171349115]}}, {"type": "Feature", "properties": {"name": "安州区", "QUHUADAIMA": "510705", "Location": 6, "Alignment": 1}, "geometry": {"type": "Point", "coordinates": [104.55783299257129, 31.547262745524286]}}, {"type": "Feature", "properties": {"name": "梓潼县", "QUHUADAIMA": "510725", "Location": 6, "Alignment": 1}, "geometry": {"type": "Point", "coordinates": [105.16344903493113, 31.636665809151772]}}, {"type": "Feature", "properties": {"name": "盐亭县", "QUHUADAIMA": "510723", "Location": 6, "Alignment": 1}, "geometry": {"type": "Point", "coordinates": [105.39235925801144, 31.224103520451955]}}, {"type": "Feature", "properties": {"name": "三台县", "QUHUADAIMA": "510722", "Location": 4, "Alignment": 3}, "geometry": {"type": "Point", "coordinates": [105.09277806107686, 31.089032074158503]}}, {"type": "Feature", "properties": {"name": "平武县", "QUHUADAIMA": "510727", "Location": 6, "Alignment": 1}, "geometry": {"type": "Point", "coordinates": [104.53422324139679, 32.40884372688722]}}, {"type": "Feature", "properties": {"name": "北川羌族自治县", "QUHUADAIMA": "510726", "Location": 4, "Alignment": 3}, "geometry": {"type": "Point", "coordinates": [104.46058269244944, 31.622019368704432]}}, {"type": "Feature", "properties": {"name": "涪城区", "QUHUADAIMA": "510703", "Location": 8, "Alignment": 2}, "geometry": {"type": "Point", "coordinates": [104.75472895149282, 31.461844994988645]}}, {"type": "Feature", "properties": {"name": "游仙区", "QUHUADAIMA": "510704", "Location": 3, "Alignment": 1}, "geometry": {"type": "Point", "coordinates": [104.76247753098184, 31.471655250829215]}}]}