{"type": "FeatureCollection", "name": "点", "features": [{"type": "Feature", "properties": {"name": "富顺县", "QUHUADAIMA": "510322", "Location": 6, "Alignment": 1}, "geometry": {"type": "Point", "coordinates": [105.00214258158366, 29.180623498445485]}}, {"type": "Feature", "properties": {"name": "荣县", "QUHUADAIMA": "510321", "Location": 6, "Alignment": 1}, "geometry": {"type": "Point", "coordinates": [104.42380586902719, 29.457622356852767]}}, {"type": "Feature", "properties": {"name": "贡井区", "QUHUADAIMA": "510303", "Location": 4, "Alignment": 3}, "geometry": {"type": "Point", "coordinates": [104.7175794758202, 29.348566562119572]}}, {"type": "Feature", "properties": {"name": "沿滩区", "QUHUADAIMA": "510311", "Location": 6, "Alignment": 1}, "geometry": {"type": "Point", "coordinates": [104.87860090163977, 29.27299528858036]}}, {"type": "Feature", "properties": {"name": "大安区", "QUHUADAIMA": "510304", "Location": 3, "Alignment": 1}, "geometry": {"type": "Point", "coordinates": [104.77549527434645, 29.36606938441162]}}, {"type": "Feature", "properties": {"name": "自流井区", "QUHUADAIMA": "510302", "Location": 9, "Alignment": 1}, "geometry": {"type": "Point", "coordinates": [104.7648242859945, 29.35626319899834]}}]}