{"type": "FeatureCollection", "name": "点", "features": [{"type": "Feature", "properties": {"name": "万源市", "QUHUADAIMA": "511781", "Location": 6, "Alignment": 1}, "geometry": {"type": "Point", "coordinates": [108.04132098624981, 32.07003083948015]}}, {"type": "Feature", "properties": {"name": "渠县", "QUHUADAIMA": "511725", "Location": 6, "Alignment": 1}, "geometry": {"type": "Point", "coordinates": [106.9750379987846, 30.841381314078717]}}, {"type": "Feature", "properties": {"name": "大竹县", "QUHUADAIMA": "511724", "Location": 6, "Alignment": 1}, "geometry": {"type": "Point", "coordinates": [107.2071878810008, 30.738384802941624]}}, {"type": "Feature", "properties": {"name": "宣汉县", "QUHUADAIMA": "511722", "Location": 6, "Alignment": 1}, "geometry": {"type": "Point", "coordinates": [107.72503335581993, 31.355738921845635]}}, {"type": "Feature", "properties": {"name": "开江县", "QUHUADAIMA": "511723", "Location": 6, "Alignment": 1}, "geometry": {"type": "Point", "coordinates": [107.86639494720457, 31.08377730133631]}}, {"type": "Feature", "properties": {"name": "通川区", "QUHUADAIMA": "511702", "Location": 2, "Alignment": 2}, "geometry": {"type": "Point", "coordinates": [107.50775287592009, 31.216129576192298]}}, {"type": "Feature", "properties": {"name": "达川区", "QUHUADAIMA": "511703", "Location": 8, "Alignment": 2}, "geometry": {"type": "Point", "coordinates": [107.50720020487746, 31.200164490770494]}}]}