{"type": "FeatureCollection", "name": "点", "features": [{"type": "Feature", "properties": {"name": "仁怀市", "QUHUADAIMA": "520382", "Location": 8, "Alignment": 2}, "geometry": {"type": "Point", "coordinates": [106.42331613235048, 27.81642799239959]}}, {"type": "Feature", "properties": {"name": "赤水市", "QUHUADAIMA": "520381", "Location": 9, "Alignment": 1}, "geometry": {"type": "Point", "coordinates": [105.70087195055221, 28.588992412742044]}}, {"type": "Feature", "properties": {"name": "务川仡佬族苗族自治县", "QUHUADAIMA": "520326", "Location": 2, "Alignment": 2}, "geometry": {"type": "Point", "coordinates": [107.89228203378184, 28.524505383827176]}}, {"type": "Feature", "properties": {"name": "正安县", "QUHUADAIMA": "520324", "Location": 2, "Alignment": 2}, "geometry": {"type": "Point", "coordinates": [107.44543355482313, 28.55220097615202]}}, {"type": "Feature", "properties": {"name": "道真仡佬族苗族自治县", "QUHUADAIMA": "520325", "Location": 2, "Alignment": 2}, "geometry": {"type": "Point", "coordinates": [107.60107346469557, 28.888017023480558]}}, {"type": "Feature", "properties": {"name": "桐梓县", "QUHUADAIMA": "520322", "Location": 6, "Alignment": 1}, "geometry": {"type": "Point", "coordinates": [106.82881600135526, 28.13622841200438]}}, {"type": "Feature", "properties": {"name": "习水县", "QUHUADAIMA": "520330", "Location": 6, "Alignment": 1}, "geometry": {"type": "Point", "coordinates": [106.20941810629009, 28.31837649930444]}}, {"type": "Feature", "properties": {"name": "凤冈县", "QUHUADAIMA": "520327", "Location": 6, "Alignment": 1}, "geometry": {"type": "Point", "coordinates": [107.72976377985846, 27.97044164549067]}}, {"type": "Feature", "properties": {"name": "湄潭县", "QUHUADAIMA": "520328", "Location": 6, "Alignment": 1}, "geometry": {"type": "Point", "coordinates": [107.48777258509519, 27.77118408114962]}}, {"type": "Feature", "properties": {"name": "余庆县", "QUHUADAIMA": "520329", "Location": 2, "Alignment": 2}, "geometry": {"type": "Point", "coordinates": [107.89475901623051, 27.217219446972962]}}, {"type": "Feature", "properties": {"name": "绥阳县", "QUHUADAIMA": "520323", "Location": 6, "Alignment": 1}, "geometry": {"type": "Point", "coordinates": [107.19303971151498, 27.956381559489905]}}, {"type": "Feature", "properties": {"name": "汇川区", "QUHUADAIMA": "520303", "Location": 2, "Alignment": 2}, "geometry": {"type": "Point", "coordinates": [106.92619822896883, 27.70942098827912]}}, {"type": "Feature", "properties": {"name": "红花岗区", "QUHUADAIMA": "520302", "Location": 6, "Alignment": 1}, "geometry": {"type": "Point", "coordinates": [106.90518411303873, 27.647541888682884]}}, {"type": "Feature", "properties": {"name": "播州区", "QUHUADAIMA": "520304", "Location": 4, "Alignment": 3}, "geometry": {"type": "Point", "coordinates": [106.83361880714759, 27.54043415497685]}}]}