{"type": "FeatureCollection", "name": "点", "features": [{"type": "Feature", "properties": {"name": "福泉市", "QUHUADAIMA": "522702", "Location": 6, "Alignment": 1}, "geometry": {"type": "Point", "coordinates": [107.51097541629251, 26.703813544139365]}}, {"type": "Feature", "properties": {"name": "都匀市", "QUHUADAIMA": "522701", "Location": 8, "Alignment": 2}, "geometry": {"type": "Point", "coordinates": [107.51953284823844, 26.256822670390182]}}, {"type": "Feature", "properties": {"name": "瓮安县", "QUHUADAIMA": "522725", "Location": 6, "Alignment": 1}, "geometry": {"type": "Point", "coordinates": [107.47640077080288, 27.072330284269746]}}, {"type": "Feature", "properties": {"name": "惠水县", "QUHUADAIMA": "522731", "Location": 6, "Alignment": 1}, "geometry": {"type": "Point", "coordinates": [106.66231289888374, 26.136427908590765]}}, {"type": "Feature", "properties": {"name": "龙里县", "QUHUADAIMA": "522730", "Location": 8, "Alignment": 2}, "geometry": {"type": "Point", "coordinates": [106.97981501628203, 26.45038355414119]}}, {"type": "Feature", "properties": {"name": "贵定县", "QUHUADAIMA": "522723", "Location": 8, "Alignment": 2}, "geometry": {"type": "Point", "coordinates": [107.23837653872488, 26.581222661586168]}}, {"type": "Feature", "properties": {"name": "长顺县", "QUHUADAIMA": "522729", "Location": 2, "Alignment": 2}, "geometry": {"type": "Point", "coordinates": [106.45358837477976, 26.0246862686374]}}, {"type": "Feature", "properties": {"name": "罗甸县", "QUHUADAIMA": "522728", "Location": 6, "Alignment": 1}, "geometry": {"type": "Point", "coordinates": [106.75397702981392, 25.428825238182853]}}, {"type": "Feature", "properties": {"name": "荔波县", "QUHUADAIMA": "522722", "Location": 6, "Alignment": 1}, "geometry": {"type": "Point", "coordinates": [107.88853507562655, 25.41486751220885]}}, {"type": "Feature", "properties": {"name": "独山县", "QUHUADAIMA": "522726", "Location": 6, "Alignment": 1}, "geometry": {"type": "Point", "coordinates": [107.54572171662751, 25.829617459774894]}}, {"type": "Feature", "properties": {"name": "平塘县", "QUHUADAIMA": "522727", "Location": 4, "Alignment": 3}, "geometry": {"type": "Point", "coordinates": [107.32650029853497, 25.833708403681143]}}, {"type": "Feature", "properties": {"name": "三都水族自治县", "QUHUADAIMA": "522732", "Location": 8, "Alignment": 2}, "geometry": {"type": "Point", "coordinates": [107.87378636618686, 25.986795296858503]}}]}