{"type": "FeatureCollection", "name": "点", "features": [{"type": "Feature", "properties": {"name": "兴义市", "QUHUADAIMA": "522301", "Location": 6, "Alignment": 1}, "geometry": {"type": "Point", "coordinates": [104.90081143842339, 25.08682333400512]}}, {"type": "Feature", "properties": {"name": "望谟县", "QUHUADAIMA": "522326", "Location": 1, "Alignment": 3}, "geometry": {"type": "Point", "coordinates": [106.0959153836468, 25.169198955890497]}}, {"type": "Feature", "properties": {"name": "贞丰县", "QUHUADAIMA": "522325", "Location": 6, "Alignment": 1}, "geometry": {"type": "Point", "coordinates": [105.65502355070946, 25.38758805716551]}}, {"type": "Feature", "properties": {"name": "安龙县", "QUHUADAIMA": "522328", "Location": 6, "Alignment": 1}, "geometry": {"type": "Point", "coordinates": [105.46967055130564, 25.110425635578306]}}, {"type": "Feature", "properties": {"name": "晴隆县", "QUHUADAIMA": "522324", "Location": 6, "Alignment": 1}, "geometry": {"type": "Point", "coordinates": [105.22123794154061, 25.8355335579891]}}, {"type": "Feature", "properties": {"name": "兴仁市", "QUHUADAIMA": "522302", "Location": 6, "Alignment": 1}, "geometry": {"type": "Point", "coordinates": [105.18899454424592, 25.433990383246286]}}, {"type": "Feature", "properties": {"name": "普安县", "QUHUADAIMA": "522323", "Location": 6, "Alignment": 1}, "geometry": {"type": "Point", "coordinates": [104.95657082769888, 25.78744662980919]}}, {"type": "Feature", "properties": {"name": "册亨县", "QUHUADAIMA": "522327", "Location": 6, "Alignment": 1}, "geometry": {"type": "Point", "coordinates": [105.81470176314171, 24.982862337759038]}}]}