{"type": "FeatureCollection", "name": "点", "features": [{"type": "Feature", "properties": {"name": "边坝县", "QUHUADAIMA": "540330", "Location": 6, "Alignment": 1}, "geometry": {"type": "Point", "coordinates": [94.71097422403382, 30.93626583910736]}}, {"type": "Feature", "properties": {"name": "洛隆县", "QUHUADAIMA": "540329", "Location": 6, "Alignment": 1}, "geometry": {"type": "Point", "coordinates": [95.83072377016164, 30.744102491334242]}}, {"type": "Feature", "properties": {"name": "八宿县", "QUHUADAIMA": "540326", "Location": 6, "Alignment": 1}, "geometry": {"type": "Point", "coordinates": [96.92396006655655, 30.05476929242257]}}, {"type": "Feature", "properties": {"name": "察雅县", "QUHUADAIMA": "540325", "Location": 6, "Alignment": 1}, "geometry": {"type": "Point", "coordinates": [97.56978474631809, 30.65618656743001]}}, {"type": "Feature", "properties": {"name": "丁青县", "QUHUADAIMA": "540324", "Location": 4, "Alignment": 3}, "geometry": {"type": "Point", "coordinates": [95.59912832587709, 31.41605334477116]}}, {"type": "Feature", "properties": {"name": "类乌齐县", "QUHUADAIMA": "540323", "Location": 2, "Alignment": 2}, "geometry": {"type": "Point", "coordinates": [96.60736759719684, 31.218196960954028]}}, {"type": "Feature", "properties": {"name": "芒康县", "QUHUADAIMA": "540328", "Location": 6, "Alignment": 1}, "geometry": {"type": "Point", "coordinates": [98.59620779333028, 29.68285328067824]}}, {"type": "Feature", "properties": {"name": "左贡县", "QUHUADAIMA": "540327", "Location": 4, "Alignment": 3}, "geometry": {"type": "Point", "coordinates": [97.84689231838955, 29.67431259717735]}}, {"type": "Feature", "properties": {"name": "贡觉县", "QUHUADAIMA": "540322", "Location": 6, "Alignment": 1}, "geometry": {"type": "Point", "coordinates": [98.27452669737237, 30.862057855270447]}}, {"type": "Feature", "properties": {"name": "江达县", "QUHUADAIMA": "540321", "Location": 6, "Alignment": 1}, "geometry": {"type": "Point", "coordinates": [98.2231809100653, 31.503385621997033]}}, {"type": "Feature", "properties": {"name": "卡若区", "QUHUADAIMA": "540302", "Location": 6, "Alignment": 1}, "geometry": {"type": "Point", "coordinates": [97.18454988579295, 31.14038293574196]}}]}