{"type": "FeatureCollection", "name": "点", "features": [{"type": "Feature", "properties": {"name": "腾冲市", "QUHUADAIMA": "530581", "Location": 6, "Alignment": 1}, "geometry": {"type": "Point", "coordinates": [98.50037981408254, 25.0271543813824]}}, {"type": "Feature", "properties": {"name": "龙陵县", "QUHUADAIMA": "530523", "Location": 6, "Alignment": 1}, "geometry": {"type": "Point", "coordinates": [98.69719734737376, 24.588265625579506]}}, {"type": "Feature", "properties": {"name": "昌宁县", "QUHUADAIMA": "530524", "Location": 6, "Alignment": 1}, "geometry": {"type": "Point", "coordinates": [99.61119354705899, 24.828656836096034]}}, {"type": "Feature", "properties": {"name": "施甸县", "QUHUADAIMA": "530521", "Location": 6, "Alignment": 1}, "geometry": {"type": "Point", "coordinates": [99.18839133474859, 24.72421936954646]}}, {"type": "Feature", "properties": {"name": "隆阳区", "QUHUADAIMA": "530502", "Location": 6, "Alignment": 1}, "geometry": {"type": "Point", "coordinates": [99.16810573888732, 25.11247619886048]}}]}