{"type": "FeatureCollection", "name": "点", "features": [{"type": "Feature", "properties": {"name": "大理市", "QUHUADAIMA": "532901", "Location": 6, "Alignment": 1}, "geometry": {"type": "Point", "coordinates": [100.22794979937565, 25.584515204188612]}}, {"type": "Feature", "properties": {"name": "云龙县", "QUHUADAIMA": "532929", "Location": 6, "Alignment": 1}, "geometry": {"type": "Point", "coordinates": [99.37750119113969, 25.886262316869537]}}, {"type": "Feature", "properties": {"name": "漾濞彝族自治县", "QUHUADAIMA": "532922", "Location": 4, "Alignment": 3}, "geometry": {"type": "Point", "coordinates": [99.9607743254199, 25.666478911974856]}}, {"type": "Feature", "properties": {"name": "永平县", "QUHUADAIMA": "532928", "Location": 6, "Alignment": 1}, "geometry": {"type": "Point", "coordinates": [99.52855665667224, 25.462472965341412]}}, {"type": "Feature", "properties": {"name": "弥渡县", "QUHUADAIMA": "532925", "Location": 6, "Alignment": 1}, "geometry": {"type": "Point", "coordinates": [100.49153494480146, 25.346146361798]}}, {"type": "Feature", "properties": {"name": "巍山彝族回族自治县", "QUHUADAIMA": "532927", "Location": 4, "Alignment": 3}, "geometry": {"type": "Point", "coordinates": [100.31347899818483, 25.229608117650102]}}, {"type": "Feature", "properties": {"name": "祥云县", "QUHUADAIMA": "532923", "Location": 6, "Alignment": 1}, "geometry": {"type": "Point", "coordinates": [100.56184549476855, 25.478588463391386]}}, {"type": "Feature", "properties": {"name": "南涧彝族自治县", "QUHUADAIMA": "532926", "Location": 7, "Alignment": 3}, "geometry": {"type": "Point", "coordinates": [100.52547735835826, 25.04938541405229]}}, {"type": "Feature", "properties": {"name": "宾川县", "QUHUADAIMA": "532924", "Location": 6, "Alignment": 1}, "geometry": {"type": "Point", "coordinates": [100.58032074993922, 25.828800838435683]}}, {"type": "Feature", "properties": {"name": "剑川县", "QUHUADAIMA": "532931", "Location": 7, "Alignment": 3}, "geometry": {"type": "Point", "coordinates": [99.90738271429247, 26.531081219165806]}}, {"type": "Feature", "properties": {"name": "鹤庆县", "QUHUADAIMA": "532932", "Location": 6, "Alignment": 1}, "geometry": {"type": "Point", "coordinates": [100.18020746179225, 26.561634756825015]}}, {"type": "Feature", "properties": {"name": "洱源县", "QUHUADAIMA": "532930", "Location": 6, "Alignment": 1}, "geometry": {"type": "Point", "coordinates": [99.95339176153912, 26.109341580269835]}}]}