{"type": "FeatureCollection", "name": "点", "features": [{"type": "Feature", "properties": {"name": "安宁市", "QUHUADAIMA": "530181", "Location": 4, "Alignment": 3}, "geometry": {"type": "Point", "coordinates": [102.49187593089806, 24.922736936566427]}}, {"type": "Feature", "properties": {"name": "宜良县", "QUHUADAIMA": "530125", "Location": 6, "Alignment": 1}, "geometry": {"type": "Point", "coordinates": [103.1498267760676, 24.915077869774525]}}, {"type": "Feature", "properties": {"name": "石林彝族自治县", "QUHUADAIMA": "530126", "Location": 6, "Alignment": 1}, "geometry": {"type": "Point", "coordinates": [103.26943745745592, 24.761038035304637]}}, {"type": "Feature", "properties": {"name": "晋宁区", "QUHUADAIMA": "530115", "Location": 6, "Alignment": 1}, "geometry": {"type": "Point", "coordinates": [102.59500307696455, 24.670933142843303]}}, {"type": "Feature", "properties": {"name": "禄劝彝族苗族自治县", "QUHUADAIMA": "530128", "Location": 6, "Alignment": 1}, "geometry": {"type": "Point", "coordinates": [102.46897779803501, 25.555190936317988]}}, {"type": "Feature", "properties": {"name": "寻甸回族彝族自治县", "QUHUADAIMA": "530129", "Location": 6, "Alignment": 1}, "geometry": {"type": "Point", "coordinates": [103.26001044184439, 25.56139371479518]}}, {"type": "Feature", "properties": {"name": "嵩明县", "QUHUADAIMA": "530127", "Location": 6, "Alignment": 1}, "geometry": {"type": "Point", "coordinates": [103.04213266015488, 25.337973838073808]}}, {"type": "Feature", "properties": {"name": "富民县", "QUHUADAIMA": "530124", "Location": 6, "Alignment": 1}, "geometry": {"type": "Point", "coordinates": [102.49895326286604, 25.22206154846927]}}, {"type": "Feature", "properties": {"name": "官渡区", "QUHUADAIMA": "530111", "Location": 9, "Alignment": 1}, "geometry": {"type": "Point", "coordinates": [102.74782677917915, 25.017815979381137]}}, {"type": "Feature", "properties": {"name": "西山区", "QUHUADAIMA": "530112", "Location": 4, "Alignment": 3}, "geometry": {"type": "Point", "coordinates": [102.66904536042145, 25.039204213887178]}}, {"type": "Feature", "properties": {"name": "盘龙区", "QUHUADAIMA": "530103", "Location": 3, "Alignment": 1}, "geometry": {"type": "Point", "coordinates": [102.74870712601206, 25.112887826592537]}}, {"type": "Feature", "properties": {"name": "五华区", "QUHUADAIMA": "530102", "Location": 3, "Alignment": 1}, "geometry": {"type": "Point", "coordinates": [102.71106164927954, 25.04566772397644]}}, {"type": "Feature", "properties": {"name": "东川区", "QUHUADAIMA": "530113", "Location": 6, "Alignment": 1}, "geometry": {"type": "Point", "coordinates": [103.18802430929748, 26.07920041639395]}}, {"type": "Feature", "properties": {"name": "呈贡区", "QUHUADAIMA": "530114", "Location": 6, "Alignment": 1}, "geometry": {"type": "Point", "coordinates": [102.80377918355114, 24.89539653639682]}}]}