{"type": "FeatureCollection", "name": "点", "features": [{"type": "Feature", "properties": {"name": "元江哈尼族彝族傣族自治县", "QUHUADAIMA": "530428", "Location": 6, "Alignment": 1}, "geometry": {"type": "Point", "coordinates": [102.0088403836434, 23.59507716059941]}}, {"type": "Feature", "properties": {"name": "新平彝族傣族自治县", "QUHUADAIMA": "530427", "Location": 7, "Alignment": 3}, "geometry": {"type": "Point", "coordinates": [101.99320896912533, 24.072904534133226]}}, {"type": "Feature", "properties": {"name": "易门县", "QUHUADAIMA": "530425", "Location": 6, "Alignment": 1}, "geometry": {"type": "Point", "coordinates": [102.16784516070923, 24.67173124031422]}}, {"type": "Feature", "properties": {"name": "澄江市", "QUHUADAIMA": "530481", "Location": 6, "Alignment": 1}, "geometry": {"type": "Point", "coordinates": [102.92220207217653, 24.672511946692104]}}, {"type": "Feature", "properties": {"name": "江川区", "QUHUADAIMA": "530403", "Location": 6, "Alignment": 1}, "geometry": {"type": "Point", "coordinates": [102.76103335669453, 24.29520778900376]}}, {"type": "Feature", "properties": {"name": "通海县", "QUHUADAIMA": "530423", "Location": 6, "Alignment": 1}, "geometry": {"type": "Point", "coordinates": [102.76481398799221, 24.11043244250615]}}, {"type": "Feature", "properties": {"name": "华宁县", "QUHUADAIMA": "530424", "Location": 6, "Alignment": 1}, "geometry": {"type": "Point", "coordinates": [102.9334070610136, 24.195465466538813]}}, {"type": "Feature", "properties": {"name": "峨山彝族自治县", "QUHUADAIMA": "530426", "Location": 4, "Alignment": 3}, "geometry": {"type": "Point", "coordinates": [102.40722850333898, 24.17681155680507]}}, {"type": "Feature", "properties": {"name": "红塔区", "QUHUADAIMA": "530402", "Location": 4, "Alignment": 3}, "geometry": {"type": "Point", "coordinates": [102.54539744996062, 24.355595183049637]}}]}