{"type": "FeatureCollection", "name": "点", "features": [{"type": "Feature", "properties": {"name": "如皋市", "QUHUADAIMA": "320682", "Location": 6, "Alignment": 1}, "geometry": {"type": "Point", "coordinates": [120.56593020549077, 32.37718797486056]}}, {"type": "Feature", "properties": {"name": "启东市", "QUHUADAIMA": "320681", "Location": 6, "Alignment": 1}, "geometry": {"type": "Point", "coordinates": [121.66118148553855, 31.8087738150081]}}, {"type": "Feature", "properties": {"name": "海门市", "QUHUADAIMA": "320684", "Location": 6, "Alignment": 1}, "geometry": {"type": "Point", "coordinates": [121.17190211863688, 31.893476938758408]}}, {"type": "Feature", "properties": {"name": "如东县", "QUHUADAIMA": "320623", "Location": 6, "Alignment": 1}, "geometry": {"type": "Point", "coordinates": [121.18663930124369, 32.314528663513954]}}, {"type": "Feature", "properties": {"name": "海安市", "QUHUADAIMA": "320685", "Location": 6, "Alignment": 1}, "geometry": {"type": "Point", "coordinates": [120.4579190859927, 32.54161484503326]}}, {"type": "Feature", "properties": {"name": "港闸区", "QUHUADAIMA": "320611", "Location": 3, "Alignment": 1}, "geometry": {"type": "Point", "coordinates": [120.81779119941957, 32.031739399889446]}}, {"type": "Feature", "properties": {"name": "崇川区", "QUHUADAIMA": "320602", "Location": 6, "Alignment": 1}, "geometry": {"type": "Point", "coordinates": [120.86388372283311, 32.00315555371291]}}, {"type": "Feature", "properties": {"name": "通州区", "QUHUADAIMA": "320612", "Location": 6, "Alignment": 1}, "geometry": {"type": "Point", "coordinates": [121.07701694409366, 32.080260271349445]}}]}