{"type": "FeatureCollection", "name": "点", "features": [{"type": "Feature", "properties": {"name": "泗阳县", "QUHUADAIMA": "321323", "Location": 6, "Alignment": 1}, "geometry": {"type": "Point", "coordinates": [118.68181930456572, 33.71155495491387]}}, {"type": "Feature", "properties": {"name": "泗洪县", "QUHUADAIMA": "321324", "Location": 6, "Alignment": 1}, "geometry": {"type": "Point", "coordinates": [118.21899660350965, 33.4607271402573]}}, {"type": "Feature", "properties": {"name": "沭阳县", "QUHUADAIMA": "321322", "Location": 6, "Alignment": 1}, "geometry": {"type": "Point", "coordinates": [118.76803148915565, 34.11513923101646]}}, {"type": "Feature", "properties": {"name": "宿豫区", "QUHUADAIMA": "321311", "Location": 2, "Alignment": 2}, "geometry": {"type": "Point", "coordinates": [118.32943259255705, 33.95195606760889]}}, {"type": "Feature", "properties": {"name": "宿城区", "QUHUADAIMA": "321302", "Location": 8, "Alignment": 2}, "geometry": {"type": "Point", "coordinates": [118.24285677451988, 33.96435648852171]}}]}