{"type": "FeatureCollection", "name": "点", "features": [{"type": "Feature", "properties": {"name": "溧阳市", "QUHUADAIMA": "320481", "Location": 6, "Alignment": 1}, "geometry": {"type": "Point", "coordinates": [119.48978277073444, 31.428973975385404]}}, {"type": "Feature", "properties": {"name": "武进区", "QUHUADAIMA": "320412", "Location": 8, "Alignment": 2}, "geometry": {"type": "Point", "coordinates": [119.94295519864109, 31.701010747884933]}}, {"type": "Feature", "properties": {"name": "天宁区", "QUHUADAIMA": "320402", "Location": 6, "Alignment": 1}, "geometry": {"type": "Point", "coordinates": [119.97991084926583, 31.774844174878965]}}, {"type": "Feature", "properties": {"name": "新北区", "QUHUADAIMA": "320411", "Location": 1, "Alignment": 3}, "geometry": {"type": "Point", "coordinates": [119.97285677465784, 31.831247568292707]}}, {"type": "Feature", "properties": {"name": "钟楼区", "QUHUADAIMA": "320404", "Location": 7, "Alignment": 3}, "geometry": {"type": "Point", "coordinates": [119.9056487966254, 31.802738489461568]}}, {"type": "Feature", "properties": {"name": "金坛区", "QUHUADAIMA": "320413", "Location": 6, "Alignment": 1}, "geometry": {"type": "Point", "coordinates": [119.57539297528076, 31.744664715507334]}}]}