{"type": "FeatureCollection", "name": "点", "features": [{"type": "Feature", "properties": {"name": "靖江市", "QUHUADAIMA": "321282", "Location": 6, "Alignment": 1}, "geometry": {"type": "Point", "coordinates": [120.2683674533254, 32.01505364798347]}}, {"type": "Feature", "properties": {"name": "泰兴市", "QUHUADAIMA": "321283", "Location": 6, "Alignment": 1}, "geometry": {"type": "Point", "coordinates": [120.0186104082027, 32.17325821592586]}}, {"type": "Feature", "properties": {"name": "兴化市", "QUHUADAIMA": "321281", "Location": 6, "Alignment": 1}, "geometry": {"type": "Point", "coordinates": [119.85384794892934, 32.91247700083582]}}, {"type": "Feature", "properties": {"name": "海陵区", "QUHUADAIMA": "321202", "Location": 6, "Alignment": 1}, "geometry": {"type": "Point", "coordinates": [119.92034589746964, 32.49154256015211]}}, {"type": "Feature", "properties": {"name": "高港区", "QUHUADAIMA": "321203", "Location": 6, "Alignment": 1}, "geometry": {"type": "Point", "coordinates": [119.88091642476009, 32.305308051481745]}}, {"type": "Feature", "properties": {"name": "姜堰区", "QUHUADAIMA": "321204", "Location": 6, "Alignment": 1}, "geometry": {"type": "Point", "coordinates": [120.12801396529801, 32.50819270667592]}}]}