{"type": "FeatureCollection", "name": "点", "features": [{"type": "Feature", "properties": {"name": "金湖县", "QUHUADAIMA": "320831", "Location": 6, "Alignment": 1}, "geometry": {"type": "Point", "coordinates": [119.02492783165647, 33.020799178649355]}}, {"type": "Feature", "properties": {"name": "洪泽区", "QUHUADAIMA": "320813", "Location": 6, "Alignment": 1}, "geometry": {"type": "Point", "coordinates": [118.86956212365283, 33.29747133313399]}}, {"type": "Feature", "properties": {"name": "涟水县", "QUHUADAIMA": "320826", "Location": 6, "Alignment": 1}, "geometry": {"type": "Point", "coordinates": [119.27275706580093, 33.771834580308656]}}, {"type": "Feature", "properties": {"name": "盱眙县", "QUHUADAIMA": "320830", "Location": 6, "Alignment": 1}, "geometry": {"type": "Point", "coordinates": [118.49262489387655, 33.01082476917168]}}, {"type": "Feature", "properties": {"name": "清江浦区", "QUHUADAIMA": "320812", "Location": 6, "Alignment": 1}, "geometry": {"type": "Point", "coordinates": [119.02446789066471, 33.55196882492047]}}, {"type": "Feature", "properties": {"name": "淮阴区", "QUHUADAIMA": "320804", "Location": 2, "Alignment": 2}, "geometry": {"type": "Point", "coordinates": [119.02485031743873, 33.63247699824617]}}, {"type": "Feature", "properties": {"name": "淮安区", "QUHUADAIMA": "320803", "Location": 6, "Alignment": 1}, "geometry": {"type": "Point", "coordinates": [119.14568730627651, 33.50714803417831]}}]}