{"type": "FeatureCollection", "name": "点", "features": [{"type": "Feature", "properties": {"name": "石景山区", "QUHUADAIMA": "110107", "Location": 7, "Alignment": 3}, "geometry": {"type": "Point", "coordinates": [116.22294943285564, 39.90405595561662]}}, {"type": "Feature", "properties": {"name": "海淀区", "QUHUADAIMA": "110108", "Location": 1, "Alignment": 3}, "geometry": {"type": "Point", "coordinates": [116.29747482330625, 39.95674229408978]}}, {"type": "Feature", "properties": {"name": "朝阳区", "QUHUADAIMA": "110105", "Location": 6, "Alignment": 1}, "geometry": {"type": "Point", "coordinates": [116.44324945818218, 39.919633422458546]}}, {"type": "Feature", "properties": {"name": "西城区", "QUHUADAIMA": "110102", "Location": 8, "Alignment": 2}, "geometry": {"type": "Point", "coordinates": [116.36594338429208, 39.91077652676336]}}, {"type": "Feature", "properties": {"name": "东城区", "QUHUADAIMA": "110101", "Location": 2, "Alignment": 2}, "geometry": {"type": "Point", "coordinates": [116.4160892047668, 39.92607770864617]}}, {"type": "Feature", "properties": {"name": "丰台区", "QUHUADAIMA": "110106", "Location": 8, "Alignment": 2}, "geometry": {"type": "Point", "coordinates": [116.28659565084432, 39.85652288653686]}}, {"type": "Feature", "properties": {"name": "大兴区", "QUHUADAIMA": "110115", "Location": 6, "Alignment": 1}, "geometry": {"type": "Point", "coordinates": [116.34145917992547, 39.724156930814424]}}, {"type": "Feature", "properties": {"name": "门头沟区", "QUHUADAIMA": "110109", "Location": 1, "Alignment": 3}, "geometry": {"type": "Point", "coordinates": [116.10138254826214, 39.93818298345596]}}, {"type": "Feature", "properties": {"name": "通州区", "QUHUADAIMA": "110112", "Location": 9, "Alignment": 1}, "geometry": {"type": "Point", "coordinates": [116.65697322197362, 39.90842103604483]}}, {"type": "Feature", "properties": {"name": "房山区", "QUHUADAIMA": "110111", "Location": 4, "Alignment": 3}, "geometry": {"type": "Point", "coordinates": [116.14310165550928, 39.74550866682215]}}, {"type": "Feature", "properties": {"name": "顺义区", "QUHUADAIMA": "110113", "Location": 2, "Alignment": 2}, "geometry": {"type": "Point", "coordinates": [116.65437654911995, 40.12859811308484]}}, {"type": "Feature", "properties": {"name": "昌平区", "QUHUADAIMA": "110114", "Location": 6, "Alignment": 1}, "geometry": {"type": "Point", "coordinates": [116.23177514490149, 40.21835633234691]}}, {"type": "Feature", "properties": {"name": "怀柔区", "QUHUADAIMA": "110116", "Location": 6, "Alignment": 1}, "geometry": {"type": "Point", "coordinates": [116.62863613230536, 40.31513307527337]}}, {"type": "Feature", "properties": {"name": "平谷区", "QUHUADAIMA": "110117", "Location": 6, "Alignment": 1}, "geometry": {"type": "Point", "coordinates": [117.12053159910069, 40.14006851085127]}}, {"type": "Feature", "properties": {"name": "密云区", "QUHUADAIMA": "110118", "Location": 6, "Alignment": 1}, "geometry": {"type": "Point", "coordinates": [116.84731763104793, 40.374845052838545]}}, {"type": "Feature", "properties": {"name": "延庆区", "QUHUADAIMA": "110119", "Location": 6, "Alignment": 1}, "geometry": {"type": "Point", "coordinates": [115.97599825533968, 40.45836472840692]}}]}