{"type": "FeatureCollection", "name": "点", "features": [{"type": "Feature", "properties": {"name": "中卫市", "QUHUADAIMA": "640500", "Location": 4, "Alignment": 3}, "geometry": {"type": "Point", "coordinates": [105.19078798042946, 37.51449186933388]}}, {"type": "Feature", "properties": {"name": "固原市", "QUHUADAIMA": "640400", "Location": 4, "Alignment": 3}, "geometry": {"type": "Point", "coordinates": [106.28081424765881, 36.0057980901755]}}, {"type": "Feature", "properties": {"name": "吴忠市", "QUHUADAIMA": "640300", "Location": 4, "Alignment": 3}, "geometry": {"type": "Point", "coordinates": [106.19797664099247, 37.99350855970826]}}, {"type": "Feature", "properties": {"name": "石嘴山市", "QUHUADAIMA": "640200", "Location": 8, "Alignment": 2}, "geometry": {"type": "Point", "coordinates": [106.38220533651958, 39.01553092123312]}}, {"type": "Feature", "properties": {"name": "银川市", "QUHUADAIMA": "640100", "Location": 3, "Alignment": 1}, "geometry": {"type": "Point", "coordinates": [106.2328926579912, 38.484707103739794]}}]}