{"type": "FeatureCollection", "name": "点", "features": [{"type": "Feature", "properties": {"name": "大同市", "QUHUADAIMA": "140200", "Location": 4, "Alignment": 3}, "geometry": {"type": "Point", "coordinates": [113.29363842440853, 40.09104283424776]}}, {"type": "Feature", "properties": {"name": "朔州市", "QUHUADAIMA": "140600", "Location": 4, "Alignment": 3}, "geometry": {"type": "Point", "coordinates": [112.42636574754063, 39.314506154541384]}}, {"type": "Feature", "properties": {"name": "忻州市", "QUHUADAIMA": "140900", "Location": 4, "Alignment": 3}, "geometry": {"type": "Point", "coordinates": [112.73884974069023, 38.40699564129047]}}, {"type": "Feature", "properties": {"name": "阳泉市", "QUHUADAIMA": "140300", "Location": 4, "Alignment": 3}, "geometry": {"type": "Point", "coordinates": [113.58315456928626, 37.86245010122062]}}, {"type": "Feature", "properties": {"name": "晋中市", "QUHUADAIMA": "140700", "Location": 6, "Alignment": 1}, "geometry": {"type": "Point", "coordinates": [112.74065891140214, 37.67895190967348]}}, {"type": "Feature", "properties": {"name": "长治市", "QUHUADAIMA": "140400", "Location": 4, "Alignment": 3}, "geometry": {"type": "Point", "coordinates": [113.11477869755136, 36.19313531113401]}}, {"type": "Feature", "properties": {"name": "临汾市", "QUHUADAIMA": "141000", "Location": 4, "Alignment": 3}, "geometry": {"type": "Point", "coordinates": [111.52086756553066, 36.08099463114109]}}, {"type": "Feature", "properties": {"name": "晋城市", "QUHUADAIMA": "140500", "Location": 4, "Alignment": 3}, "geometry": {"type": "Point", "coordinates": [112.84101475669716, 35.50133209205046]}}, {"type": "Feature", "properties": {"name": "运城市", "QUHUADAIMA": "140800", "Location": 4, "Alignment": 3}, "geometry": {"type": "Point", "coordinates": [110.9959914954649, 35.02505932905966]}}, {"type": "Feature", "properties": {"name": "吕梁市", "QUHUADAIMA": "141100", "Location": 6, "Alignment": 1}, "geometry": {"type": "Point", "coordinates": [111.14162750499719, 37.51648312121415]}}, {"type": "Feature", "properties": {"name": "太原市", "QUHUADAIMA": "140100", "Location": 4, "Alignment": 3}, "geometry": {"type": "Point", "coordinates": [112.54934554043078, 37.86898718217121]}}]}