{"type": "FeatureCollection", "features": [{"type": "Feature", "geometry": {"type": "Point", "coordinates": [84.8722908720721, 45.590309707972715]}, "properties": {"name": "克拉玛依市"}}, {"type": "Feature", "geometry": {"type": "Point", "coordinates": [93.52166686611962, 42.82710483502423]}, "properties": {"name": "哈密市"}}, {"type": "Feature", "geometry": {"type": "Point", "coordinates": [87.6203740730795, 43.82269730249561]}, "properties": {"name": "乌鲁木齐市"}}, {"type": "Feature", "geometry": {"type": "Point", "coordinates": [79.27732923208782, 37.22231092884993]}, "properties": {"name": "昆玉市"}}, {"type": "Feature", "geometry": {"type": "Point", "coordinates": [86.04423605939559, 44.29152885479878]}, "properties": {"name": "石河子市"}}, {"type": "Feature", "geometry": {"type": "Point", "coordinates": [87.53089581286623, 44.157859961763016]}, "properties": {"name": "五家渠市"}}, {"type": "Feature", "geometry": {"type": "Point", "coordinates": [81.28064319158834, 40.54417839554765]}, "properties": {"name": "阿拉尔市"}}, {"type": "Feature", "geometry": {"type": "Point", "coordinates": [79.1014544549595, 39.87713843193642]}, "properties": {"name": "图木舒克市"}}, {"type": "Feature", "geometry": {"type": "Point", "coordinates": [85.60716689038631, 41.82652932983388]}, "properties": {"name": "铁门关市"}}, {"type": "Feature", "geometry": {"type": "Point", "coordinates": [82.35322996023443, 44.838390687854584]}, "properties": {"name": "双河市"}}, {"type": "Feature", "geometry": {"type": "Point", "coordinates": [81.01806164127957, 43.92993837822623]}, "properties": {"name": "可克达拉市"}}, {"type": "Feature", "geometry": {"type": "Point", "coordinates": [87.83191637316045, 47.34890129690897]}, "properties": {"name": "北屯市"}}, {"type": "Feature", "geometry": {"type": "Point", "coordinates": [89.1750115193332, 42.94059917226848]}, "properties": {"name": "吐鲁番市"}}, {"type": "Feature", "geometry": {"type": "Point", "coordinates": [84.83346696966696, 44.71561319560648]}, "properties": {"name": "胡杨河市"}}, {"type": "Feature", "geometry": {"type": "Point", "coordinates": [89.6814, 44.4507]}, "properties": {"name": "昌吉回族自治州"}}, {"type": "Feature", "geometry": {"type": "Point", "coordinates": [81.8481, 44.6979]}, "properties": {"name": "博尔塔拉蒙古自治州"}}, {"type": "Feature", "geometry": {"type": "Point", "coordinates": [88.1653, 39.6002]}, "properties": {"name": "巴音郭楞蒙古自治州"}}, {"type": "Feature", "geometry": {"type": "Point", "coordinates": [82.9797, 41.0229]}, "properties": {"name": "阿克苏地区"}}, {"type": "Feature", "geometry": {"type": "Point", "coordinates": [74.6301, 39.5233]}, "properties": {"name": "克孜勒苏柯尔克孜自治州"}}, {"type": "Feature", "geometry": {"type": "Point", "coordinates": [77.168, 37.8534]}, "properties": {"name": "喀什地区"}}, {"type": "Feature", "geometry": {"type": "Point", "coordinates": [81.167, 36.9855]}, "properties": {"name": "和田地区"}}, {"type": "Feature", "geometry": {"type": "Point", "coordinates": [82.5513, 43.5498]}, "properties": {"name": "伊犁哈萨克自治州"}}, {"type": "Feature", "geometry": {"type": "Point", "coordinates": [86.6272, 45.8514]}, "properties": {"name": "塔城地区"}}, {"type": "Feature", "geometry": {"type": "Point", "coordinates": [88.2971, 47.0929]}, "properties": {"name": "阿勒泰地区"}}]}