{"type": "FeatureCollection", "name": "面", "features": [{"type": "Feature", "properties": {"name": "吉安市", "QUHUADAIMA": "360800", "Location": 4, "Alignment": 3}, "geometry": {"type": "Point", "coordinates": [114.98683109843485, 27.123159423796867]}}, {"type": "Feature", "properties": {"name": "景德镇市", "QUHUADAIMA": "360200", "Location": 2, "Alignment": 2}, "geometry": {"type": "Point", "coordinates": [117.18641675408946, 29.27793143409753]}}, {"type": "Feature", "properties": {"name": "九江市", "QUHUADAIMA": "360400", "Location": 8, "Alignment": 2}, "geometry": {"type": "Point", "coordinates": [116.00096896503405, 29.706626134411497]}}, {"type": "Feature", "properties": {"name": "上饶市", "QUHUADAIMA": "361100", "Location": 4, "Alignment": 3}, "geometry": {"type": "Point", "coordinates": [117.96820748006775, 28.446367694281214]}}, {"type": "Feature", "properties": {"name": "鹰潭市", "QUHUADAIMA": "360600", "Location": 2, "Alignment": 2}, "geometry": {"type": "Point", "coordinates": [117.05421903177982, 28.249409544021958]}}, {"type": "Feature", "properties": {"name": "抚州市", "QUHUADAIMA": "361000", "Location": 6, "Alignment": 1}, "geometry": {"type": "Point", "coordinates": [116.35698290097514, 27.949186083655977]}}, {"type": "Feature", "properties": {"name": "新余市", "QUHUADAIMA": "360500", "Location": 2, "Alignment": 2}, "geometry": {"type": "Point", "coordinates": [114.90997999999331, 27.82544446460322]}}, {"type": "Feature", "properties": {"name": "宜春市", "QUHUADAIMA": "360900", "Location": 1, "Alignment": 3}, "geometry": {"type": "Point", "coordinates": [114.38944718362019, 27.7939368944511]}}, {"type": "Feature", "properties": {"name": "萍乡市", "QUHUADAIMA": "360300", "Location": 8, "Alignment": 2}, "geometry": {"type": "Point", "coordinates": [113.84964385834566, 27.63411117632254]}}, {"type": "Feature", "properties": {"name": "赣州市", "QUHUADAIMA": "360700", "Location": 4, "Alignment": 3}, "geometry": {"type": "Point", "coordinates": [114.92883074884688, 25.837180854683286]}}, {"type": "Feature", "properties": {"name": "南昌市", "QUHUADAIMA": "360100", "Location": 6, "Alignment": 1}, "geometry": {"type": "Point", "coordinates": [115.86481410543946, 28.682748254399947]}}]}