{"type": "FeatureCollection", "name": "点", "features": [{"type": "Feature", "properties": {"name": "承德市", "QUHUADAIMA": "130800", "Location": 4, "Alignment": 3}, "geometry": {"type": "Point", "coordinates": [117.94211281870409, 40.97545210398231]}}, {"type": "Feature", "properties": {"name": "张家口市", "QUHUADAIMA": "130700", "Location": 4, "Alignment": 3}, "geometry": {"type": "Point", "coordinates": [114.88504196453377, 40.813480684802336]}}, {"type": "Feature", "properties": {"name": "秦皇岛市", "QUHUADAIMA": "130300", "Location": 4, "Alignment": 3}, "geometry": {"type": "Point", "coordinates": [119.60011417045843, 39.93289418217493]}}, {"type": "Feature", "properties": {"name": "唐山市", "QUHUADAIMA": "130200", "Location": 1, "Alignment": 1}, "geometry": {"type": "Point", "coordinates": [118.17847841903708, 39.62817074257137]}}, {"type": "Feature", "properties": {"name": "廊坊市", "QUHUADAIMA": "131000", "Location": 7, "Alignment": 3}, "geometry": {"type": "Point", "coordinates": [116.70482854763111, 39.518416868502875]}}, {"type": "Feature", "properties": {"name": "沧州市", "QUHUADAIMA": "130900", "Location": 4, "Alignment": 3}, "geometry": {"type": "Point", "coordinates": [116.83853011093895, 38.30284993653301]}}, {"type": "Feature", "properties": {"name": "保定市", "QUHUADAIMA": "130600", "Location": 4, "Alignment": 3}, "geometry": {"type": "Point", "coordinates": [115.46487456250244, 38.883159415760794]}}, {"type": "Feature", "properties": {"name": "衡水市", "QUHUADAIMA": "131100", "Location": 6, "Alignment": 1}, "geometry": {"type": "Point", "coordinates": [115.69757224662798, 37.73364689924134]}}, {"type": "Feature", "properties": {"name": "邢台市", "QUHUADAIMA": "130500", "Location": 4, "Alignment": 3}, "geometry": {"type": "Point", "coordinates": [114.50343150356724, 37.064470116648714]}}, {"type": "Feature", "properties": {"name": "邯郸市", "QUHUADAIMA": "130400", "Location": 4, "Alignment": 3}, "geometry": {"type": "Point", "coordinates": [114.49063835194558, 36.60719282774304]}}, {"type": "Feature", "properties": {"name": "石家庄市", "QUHUADAIMA": "130100", "Location": 6, "Alignment": 1}, "geometry": {"type": "Point", "coordinates": [114.5152804599293, 38.03935181038843]}}]}