{"type": "FeatureCollection", "name": "点", "features": [{"type": "Feature", "properties": {"name": "山南市", "QUHUADAIMA": "540500", "Location": 8, "Alignment": 2}, "geometry": {"type": "Point", "coordinates": [91.7796166513061, 29.23976452455469]}}, {"type": "Feature", "properties": {"name": "那曲市", "QUHUADAIMA": "540600", "Location": 4, "Alignment": 3}, "geometry": {"type": "Point", "coordinates": [92.06307326800432, 31.476750237319553]}}, {"type": "Feature", "properties": {"name": "日喀则市", "QUHUADAIMA": "540200", "Location": 4, "Alignment": 3}, "geometry": {"type": "Point", "coordinates": [88.88719094608642, 29.276438469005466]}}, {"type": "Feature", "properties": {"name": "昌都市", "QUHUADAIMA": "540300", "Location": 4, "Alignment": 3}, "geometry": {"type": "Point", "coordinates": [97.1833517253311, 31.135371739847997]}}, {"type": "Feature", "properties": {"name": "林芝市", "QUHUADAIMA": "540400", "Location": 6, "Alignment": 1}, "geometry": {"type": "Point", "coordinates": [94.36653317093538, 29.66758005362307]}}, {"type": "Feature", "properties": {"name": "拉萨市", "QUHUADAIMA": "540100", "Location": 2, "Alignment": 2}, "geometry": {"type": "Point", "coordinates": [91.17795721141347, 29.653327545115808]}}, {"type": "Feature", "geometry": {"type": "Point", "coordinates": [82.3645, 32.7667]}, "properties": {"name": "阿里地区"}}]}