{"type": "FeatureCollection", "name": "点", "features": [{"type": "Feature", "properties": {"name": "竞秀区", "QUHUADAIMA": "130602", "Location": 4, "Alignment": 3}, "geometry": {"type": "Point", "coordinates": [115.45303181431542, 38.891444483775615]}}, {"type": "Feature", "properties": {"name": "莲池区", "QUHUADAIMA": "130606", "Location": 3, "Alignment": 1}, "geometry": {"type": "Point", "coordinates": [115.50780647466449, 38.89387594976292]}}, {"type": "Feature", "properties": {"name": "满城区", "QUHUADAIMA": "130607", "Location": 2, "Alignment": 2}, "geometry": {"type": "Point", "coordinates": [115.32035768004992, 38.949594248736304]}}, {"type": "Feature", "properties": {"name": "清苑区", "QUHUADAIMA": "130608", "Location": 4, "Alignment": 3}, "geometry": {"type": "Point", "coordinates": [115.49024166352687, 38.77164810396884]}}, {"type": "Feature", "properties": {"name": "徐水区", "QUHUADAIMA": "130609", "Location": 4, "Alignment": 3}, "geometry": {"type": "Point", "coordinates": [115.65614961409693, 39.018759109239824]}}, {"type": "Feature", "properties": {"name": "雄县", "QUHUADAIMA": "130638", "Location": 6, "Alignment": 1}, "geometry": {"type": "Point", "coordinates": [116.10404296745882, 38.98978513686294]}}, {"type": "Feature", "properties": {"name": "曲阳县", "QUHUADAIMA": "130634", "Location": 4, "Alignment": 3}, "geometry": {"type": "Point", "coordinates": [114.69954214825042, 38.61778229910866]}}, {"type": "Feature", "properties": {"name": "阜平县", "QUHUADAIMA": "130624", "Location": 4, "Alignment": 3}, "geometry": {"type": "Point", "coordinates": [114.19666555809617, 38.8466521559628]}}, {"type": "Feature", "properties": {"name": "唐县", "QUHUADAIMA": "130627", "Location": 4, "Alignment": 3}, "geometry": {"type": "Point", "coordinates": [114.97803484585572, 38.745254289753476]}}, {"type": "Feature", "properties": {"name": "博野县", "QUHUADAIMA": "130637", "Location": 2, "Alignment": 2}, "geometry": {"type": "Point", "coordinates": [115.46657267697205, 38.45686592417472]}}, {"type": "Feature", "properties": {"name": "望都县", "QUHUADAIMA": "130631", "Location": 8, "Alignment": 2}, "geometry": {"type": "Point", "coordinates": [115.15175740039165, 38.70939601774425]}}, {"type": "Feature", "properties": {"name": "顺平县", "QUHUADAIMA": "130636", "Location": 2, "Alignment": 2}, "geometry": {"type": "Point", "coordinates": [115.1354017427133, 38.83374075549445]}}, {"type": "Feature", "properties": {"name": "安新县", "QUHUADAIMA": "130632", "Location": 4, "Alignment": 3}, "geometry": {"type": "Point", "coordinates": [115.92742143535779, 38.91964090090922]}}, {"type": "Feature", "properties": {"name": "高阳县", "QUHUADAIMA": "130628", "Location": 4, "Alignment": 3}, "geometry": {"type": "Point", "coordinates": [115.77475340761036, 38.68594420520721]}}, {"type": "Feature", "properties": {"name": "蠡县", "QUHUADAIMA": "130635", "Location": 6, "Alignment": 1}, "geometry": {"type": "Point", "coordinates": [115.58312695605026, 38.48959284516517]}}, {"type": "Feature", "properties": {"name": "涞源县", "QUHUADAIMA": "130630", "Location": 4, "Alignment": 3}, "geometry": {"type": "Point", "coordinates": [114.6912293245124, 39.356733889457644]}}, {"type": "Feature", "properties": {"name": "易县", "QUHUADAIMA": "130633", "Location": 4, "Alignment": 3}, "geometry": {"type": "Point", "coordinates": [115.49526242191467, 39.35157399662328]}}, {"type": "Feature", "properties": {"name": "涞水县", "QUHUADAIMA": "130623", "Location": 2, "Alignment": 2}, "geometry": {"type": "Point", "coordinates": [115.70910837782544, 39.391265293102286]}}, {"type": "Feature", "properties": {"name": "定兴县", "QUHUADAIMA": "130626", "Location": 4, "Alignment": 3}, "geometry": {"type": "Point", "coordinates": [115.80595904239681, 39.26142488353038]}}, {"type": "Feature", "properties": {"name": "容城县", "QUHUADAIMA": "130629", "Location": 6, "Alignment": 1}, "geometry": {"type": "Point", "coordinates": [115.86256439866202, 39.050818928131065]}}, {"type": "Feature", "properties": {"name": "安国市", "QUHUADAIMA": "130683", "Location": 6, "Alignment": 1}, "geometry": {"type": "Point", "coordinates": [115.32302141933344, 38.41021964951728]}}, {"type": "Feature", "properties": {"name": "定州市", "QUHUADAIMA": "130682", "Location": 6, "Alignment": 1}, "geometry": {"type": "Point", "coordinates": [114.98487759707787, 38.51834799243486]}}, {"type": "Feature", "properties": {"name": "高碑店市", "QUHUADAIMA": "130684", "Location": 6, "Alignment": 1}, "geometry": {"type": "Point", "coordinates": [115.8722550187141, 39.32470275718031]}}, {"type": "Feature", "properties": {"name": "涿州市", "QUHUADAIMA": "130681", "Location": 6, "Alignment": 1}, "geometry": {"type": "Point", "coordinates": [115.97566517785249, 39.484563921222254]}}]}