{"type": "FeatureCollection", "name": "点", "features": [{"type": "Feature", "properties": {"name": "桥西区", "QUHUADAIMA": "130503", "Location": 4, "Alignment": 3}, "geometry": {"type": "Point", "coordinates": [114.46813291651472, 37.05621953071822]}}, {"type": "Feature", "properties": {"name": "桥东区", "QUHUADAIMA": "130502", "Location": 6, "Alignment": 1}, "geometry": {"type": "Point", "coordinates": [114.51261009323791, 37.05995854679427]}}, {"type": "Feature", "properties": {"name": "临城县", "QUHUADAIMA": "130522", "Location": 4, "Alignment": 3}, "geometry": {"type": "Point", "coordinates": [114.50146853610887, 37.441353594201544]}}, {"type": "Feature", "properties": {"name": "临西县", "QUHUADAIMA": "130535", "Location": 8, "Alignment": 2}, "geometry": {"type": "Point", "coordinates": [115.49378830952112, 36.85918296862896]}}, {"type": "Feature", "properties": {"name": "威县", "QUHUADAIMA": "130533", "Location": 6, "Alignment": 1}, "geometry": {"type": "Point", "coordinates": [115.26516587665714, 36.98019982241714]}}, {"type": "Feature", "properties": {"name": "南和县", "QUHUADAIMA": "130527", "Location": 6, "Alignment": 1}, "geometry": {"type": "Point", "coordinates": [114.69201470266137, 36.99677182750068]}}, {"type": "Feature", "properties": {"name": "新河县", "QUHUADAIMA": "130530", "Location": 8, "Alignment": 2}, "geometry": {"type": "Point", "coordinates": [115.24991197154542, 37.527835912863694]}}, {"type": "Feature", "properties": {"name": "隆尧县", "QUHUADAIMA": "130525", "Location": 4, "Alignment": 3}, "geometry": {"type": "Point", "coordinates": [114.7709016558172, 37.3514641690338]}}, {"type": "Feature", "properties": {"name": "内丘县", "QUHUADAIMA": "130523", "Location": 4, "Alignment": 3}, "geometry": {"type": "Point", "coordinates": [114.52055572421803, 37.292523212884824]}}, {"type": "Feature", "properties": {"name": "巨鹿县", "QUHUADAIMA": "130529", "Location": 4, "Alignment": 3}, "geometry": {"type": "Point", "coordinates": [115.03159729612956, 37.21367208248221]}}, {"type": "Feature", "properties": {"name": "任县", "QUHUADAIMA": "130526", "Location": 6, "Alignment": 1}, "geometry": {"type": "Point", "coordinates": [114.68316420310035, 37.12594311817475]}}, {"type": "Feature", "properties": {"name": "广宗县", "QUHUADAIMA": "130531", "Location": 6, "Alignment": 1}, "geometry": {"type": "Point", "coordinates": [115.14783178325231, 37.07018249747968]}}, {"type": "Feature", "properties": {"name": "平乡县", "QUHUADAIMA": "130532", "Location": 4, "Alignment": 3}, "geometry": {"type": "Point", "coordinates": [115.03082312841852, 37.068994617421914]}}, {"type": "Feature", "properties": {"name": "柏乡县", "QUHUADAIMA": "130524", "Location": 2, "Alignment": 2}, "geometry": {"type": "Point", "coordinates": [114.6701772476558, 37.4863544094812]}}, {"type": "Feature", "properties": {"name": "宁晋县", "QUHUADAIMA": "130528", "Location": 4, "Alignment": 3}, "geometry": {"type": "Point", "coordinates": [114.92512645221493, 37.61724874996158]}}, {"type": "Feature", "properties": {"name": "清河县", "QUHUADAIMA": "130534", "Location": 8, "Alignment": 2}, "geometry": {"type": "Point", "coordinates": [115.66100962621678, 37.071162804634284]}}, {"type": "Feature", "properties": {"name": "邢台县", "QUHUADAIMA": "130521", "Location": 2, "Alignment": 2}, "geometry": {"type": "Point", "coordinates": [114.51245317217773, 37.06782233408957]}}, {"type": "Feature", "properties": {"name": "沙河市", "QUHUADAIMA": "130582", "Location": 1, "Alignment": 3}, "geometry": {"type": "Point", "coordinates": [114.50660402487576, 36.85796264606208]}}, {"type": "Feature", "properties": {"name": "南宫市", "QUHUADAIMA": "130581", "Location": 8, "Alignment": 2}, "geometry": {"type": "Point", "coordinates": [115.3894327396121, 37.35739049108298]}}]}