{"type": "FeatureCollection", "name": "点", "features": [{"type": "Feature", "properties": {"name": "永年区", "QUHUADAIMA": "130408", "Location": 6, "Alignment": 1}, "geometry": {"type": "Point", "coordinates": [114.48134763334399, 36.78225079996023]}}, {"type": "Feature", "properties": {"name": "峰峰矿区", "QUHUADAIMA": "130406", "Location": 2, "Alignment": 2}, "geometry": {"type": "Point", "coordinates": [114.20873033877703, 36.41584024536101]}}, {"type": "Feature", "properties": {"name": "复兴区", "QUHUADAIMA": "130404", "Location": 4, "Alignment": 3}, "geometry": {"type": "Point", "coordinates": [114.46600192601205, 36.60859553712466]}}, {"type": "Feature", "properties": {"name": "丛台区", "QUHUADAIMA": "130403", "Location": 2, "Alignment": 2}, "geometry": {"type": "Point", "coordinates": [114.49238759985255, 36.61795753595039]}}, {"type": "Feature", "properties": {"name": "邯山区", "QUHUADAIMA": "130402", "Location": 8, "Alignment": 2}, "geometry": {"type": "Point", "coordinates": [114.48324173112871, 36.59954429384073]}}, {"type": "Feature", "properties": {"name": "大名县", "QUHUADAIMA": "130425", "Location": 6, "Alignment": 1}, "geometry": {"type": "Point", "coordinates": [115.1534343601879, 36.276570623340156]}}, {"type": "Feature", "properties": {"name": "涉县", "QUHUADAIMA": "130426", "Location": 6, "Alignment": 1}, "geometry": {"type": "Point", "coordinates": [113.66907140242944, 36.561780362559766]}}, {"type": "Feature", "properties": {"name": "临漳县", "QUHUADAIMA": "130423", "Location": 8, "Alignment": 2}, "geometry": {"type": "Point", "coordinates": [114.61160860039466, 36.34328523655655]}}, {"type": "Feature", "properties": {"name": "磁县", "QUHUADAIMA": "130427", "Location": 4, "Alignment": 3}, "geometry": {"type": "Point", "coordinates": [114.38186615597905, 36.359349524110435]}}, {"type": "Feature", "properties": {"name": "魏县", "QUHUADAIMA": "130434", "Location": 8, "Alignment": 2}, "geometry": {"type": "Point", "coordinates": [114.93821696268263, 36.35893137332513]}}, {"type": "Feature", "properties": {"name": "成安县", "QUHUADAIMA": "130424", "Location": 4, "Alignment": 3}, "geometry": {"type": "Point", "coordinates": [114.69640119337237, 36.43961192761849]}}, {"type": "Feature", "properties": {"name": "广平县", "QUHUADAIMA": "130432", "Location": 6, "Alignment": 1}, "geometry": {"type": "Point", "coordinates": [114.94601871469652, 36.48193959956466]}}, {"type": "Feature", "properties": {"name": "馆陶县", "QUHUADAIMA": "130433", "Location": 4, "Alignment": 3}, "geometry": {"type": "Point", "coordinates": [115.29772576598138, 36.538050905136146]}}, {"type": "Feature", "properties": {"name": "肥乡区", "QUHUADAIMA": "130407", "Location": 4, "Alignment": 3}, "geometry": {"type": "Point", "coordinates": [114.80315931205925, 36.55136435817764]}}, {"type": "Feature", "properties": {"name": "曲周县", "QUHUADAIMA": "130435", "Location": 6, "Alignment": 1}, "geometry": {"type": "Point", "coordinates": [114.94672878813941, 36.77905194233323]}}, {"type": "Feature", "properties": {"name": "邱县", "QUHUADAIMA": "130430", "Location": 6, "Alignment": 1}, "geometry": {"type": "Point", "coordinates": [115.17273735994158, 36.817586180381824]}}, {"type": "Feature", "properties": {"name": "鸡泽县", "QUHUADAIMA": "130431", "Location": 8, "Alignment": 2}, "geometry": {"type": "Point", "coordinates": [114.8726463871466, 36.91806329940319]}}, {"type": "Feature", "properties": {"name": "武安市", "QUHUADAIMA": "130481", "Location": 6, "Alignment": 1}, "geometry": {"type": "Point", "coordinates": [114.18571287923668, 36.69056197500155]}}]}