{"type": "FeatureCollection", "name": "点", "features": [{"type": "Feature", "properties": {"name": "公主岭市", "QUHUADAIMA": "220381", "Location": 4, "Alignment": 3}, "geometry": {"type": "Point", "coordinates": [124.82975309086984, 43.49850796727548]}}, {"type": "Feature", "properties": {"name": "双辽市", "QUHUADAIMA": "220382", "Location": 6, "Alignment": 1}, "geometry": {"type": "Point", "coordinates": [123.50859443872199, 43.512983193508205]}}, {"type": "Feature", "properties": {"name": "伊通满族自治县", "QUHUADAIMA": "220323", "Location": 4, "Alignment": 3}, "geometry": {"type": "Point", "coordinates": [125.30338772527594, 43.34141831630577]}}, {"type": "Feature", "properties": {"name": "梨树县", "QUHUADAIMA": "220322", "Location": 6, "Alignment": 1}, "geometry": {"type": "Point", "coordinates": [124.33586276177769, 43.308376691166686]}}, {"type": "Feature", "properties": {"name": "铁西区", "QUHUADAIMA": "220302", "Location": 1, "Alignment": 3}, "geometry": {"type": "Point", "coordinates": [124.34835432555735, 43.14130422735299]}}, {"type": "Feature", "properties": {"name": "铁东区", "QUHUADAIMA": "220303", "Location": 3, "Alignment": 1}, "geometry": {"type": "Point", "coordinates": [124.39822291960833, 43.16236757490754]}}]}