{"type": "FeatureCollection", "name": "点", "features": [{"type": "Feature", "properties": {"name": "敦化市", "QUHUADAIMA": "222403", "Location": 6, "Alignment": 1}, "geometry": {"type": "Point", "coordinates": [128.2341457059241, 43.36782022254402]}}, {"type": "Feature", "properties": {"name": "延吉市", "QUHUADAIMA": "222401", "Location": 6, "Alignment": 1}, "geometry": {"type": "Point", "coordinates": [129.50835622906428, 42.90212191388218]}}, {"type": "Feature", "properties": {"name": "龙井市", "QUHUADAIMA": "222405", "Location": 6, "Alignment": 1}, "geometry": {"type": "Point", "coordinates": [129.4227729402412, 42.76620043905277]}}, {"type": "Feature", "properties": {"name": "和龙市", "QUHUADAIMA": "222406", "Location": 6, "Alignment": 1}, "geometry": {"type": "Point", "coordinates": [129.01033635341423, 42.53971813437124]}}, {"type": "Feature", "properties": {"name": "图们市", "QUHUADAIMA": "222402", "Location": 2, "Alignment": 2}, "geometry": {"type": "Point", "coordinates": [129.8444657833795, 42.9622900061768]}}, {"type": "Feature", "properties": {"name": "珲春市", "QUHUADAIMA": "222404", "Location": 6, "Alignment": 1}, "geometry": {"type": "Point", "coordinates": [130.39219195789383, 42.85669054918111]}}, {"type": "Feature", "properties": {"name": "汪清县", "QUHUADAIMA": "222424", "Location": 6, "Alignment": 1}, "geometry": {"type": "Point", "coordinates": [129.76868687141186, 43.3123156267145]}}, {"type": "Feature", "properties": {"name": "安图县", "QUHUADAIMA": "222426", "Location": 6, "Alignment": 1}, "geometry": {"type": "Point", "coordinates": [128.903545882153, 43.10633754473532]}}]}