{"type": "FeatureCollection", "name": "点", "features": [{"type": "Feature", "properties": {"name": "榆树市", "QUHUADAIMA": "220182", "Location": 6, "Alignment": 1}, "geometry": {"type": "Point", "coordinates": [126.56431874527776, 44.82883791982788]}}, {"type": "Feature", "properties": {"name": "德惠市", "QUHUADAIMA": "220183", "Location": 6, "Alignment": 1}, "geometry": {"type": "Point", "coordinates": [125.71103140151456, 44.531606744539985]}}, {"type": "Feature", "properties": {"name": "农安县", "QUHUADAIMA": "220122", "Location": 6, "Alignment": 1}, "geometry": {"type": "Point", "coordinates": [125.17832057823959, 44.42859549750094]}}, {"type": "Feature", "properties": {"name": "绿园区", "QUHUADAIMA": "220106", "Location": 1, "Alignment": 3}, "geometry": {"type": "Point", "coordinates": [125.26638643526593, 43.87904656702821]}}, {"type": "Feature", "properties": {"name": "宽城区", "QUHUADAIMA": "220103", "Location": 2, "Alignment": 4}, "geometry": {"type": "Point", "coordinates": [125.32684028262224, 43.934876931310235]}}, {"type": "Feature", "properties": {"name": "二道区", "QUHUADAIMA": "220105", "Location": 3, "Alignment": 1}, "geometry": {"type": "Point", "coordinates": [125.37229811762738, 43.861887779098865]}}, {"type": "Feature", "properties": {"name": "南关区", "QUHUADAIMA": "220102", "Location": 8, "Alignment": 6}, "geometry": {"type": "Point", "coordinates": [125.3489202800375, 43.86029938178905]}}, {"type": "Feature", "properties": {"name": "朝阳区", "QUHUADAIMA": "220104", "Location": 7, "Alignment": 3}, "geometry": {"type": "Point", "coordinates": [125.28568839823589, 43.83023125800329]}}, {"type": "Feature", "properties": {"name": "双阳区", "QUHUADAIMA": "220112", "Location": 6, "Alignment": 1}, "geometry": {"type": "Point", "coordinates": [125.6708581645483, 43.521409086281565]}}, {"type": "Feature", "properties": {"name": "九台区", "QUHUADAIMA": "220113", "Location": 6, "Alignment": 1}, "geometry": {"type": "Point", "coordinates": [125.8396373678177, 44.149149999247626]}}]}