{"type": "FeatureCollection", "name": "点", "features": [{"type": "Feature", "properties": {"name": "巢湖市", "QUHUADAIMA": "340181", "Location": 6, "Alignment": 1}, "geometry": {"type": "Point", "coordinates": [117.85761828340712, 31.606370786589903]}}, {"type": "Feature", "properties": {"name": "长丰县", "QUHUADAIMA": "340121", "Location": 8, "Alignment": 2}, "geometry": {"type": "Point", "coordinates": [117.16785980398939, 32.479439529345]}}, {"type": "Feature", "properties": {"name": "肥西县", "QUHUADAIMA": "340123", "Location": 4, "Alignment": 3}, "geometry": {"type": "Point", "coordinates": [117.16206758382845, 31.718628904985]}}, {"type": "Feature", "properties": {"name": "庐江县", "QUHUADAIMA": "340124", "Location": 6, "Alignment": 1}, "geometry": {"type": "Point", "coordinates": [117.29083420842029, 31.24393022905191]}}, {"type": "Feature", "properties": {"name": "肥东县", "QUHUADAIMA": "340122", "Location": 6, "Alignment": 1}, "geometry": {"type": "Point", "coordinates": [117.46583536547482, 31.883138341380775]}}, {"type": "Feature", "properties": {"name": "包河区", "QUHUADAIMA": "340111", "Location": 6, "Alignment": 1}, "geometry": {"type": "Point", "coordinates": [117.30800604110624, 31.78819791827198]}}, {"type": "Feature", "properties": {"name": "蜀山区", "QUHUADAIMA": "340104", "Location": 4, "Alignment": 3}, "geometry": {"type": "Point", "coordinates": [117.25940123147541, 31.851837442479233]}}, {"type": "Feature", "properties": {"name": "瑶海区", "QUHUADAIMA": "340102", "Location": 6, "Alignment": 1}, "geometry": {"type": "Point", "coordinates": [117.30557820486327, 31.86485073273418]}}, {"type": "Feature", "properties": {"name": "庐阳区", "QUHUADAIMA": "340103", "Location": 2, "Alignment": 2}, "geometry": {"type": "Point", "coordinates": [117.2674588671248, 31.87865425207409]}}]}