{"type": "FeatureCollection", "name": "点", "features": [{"type": "Feature", "properties": {"name": "当涂县", "QUHUADAIMA": "340521", "Location": 8, "Alignment": 2}, "geometry": {"type": "Point", "coordinates": [118.49024621634906, 31.555537636451774]}}, {"type": "Feature", "properties": {"name": "含山县", "QUHUADAIMA": "340522", "Location": 6, "Alignment": 1}, "geometry": {"type": "Point", "coordinates": [118.10946497463347, 31.719039231092047]}}, {"type": "Feature", "properties": {"name": "和县", "QUHUADAIMA": "340523", "Location": 6, "Alignment": 1}, "geometry": {"type": "Point", "coordinates": [118.35501135909183, 31.74684606543587]}}, {"type": "Feature", "properties": {"name": "花山区", "QUHUADAIMA": "340503", "Location": 2, "Alignment": 2}, "geometry": {"type": "Point", "coordinates": [118.5714095655694, 31.690821338262392]}}, {"type": "Feature", "properties": {"name": "雨山区", "QUHUADAIMA": "340504", "Location": 8, "Alignment": 2}, "geometry": {"type": "Point", "coordinates": [118.49544089999657, 31.68133527970063]}}, {"type": "Feature", "properties": {"name": "博望区", "QUHUADAIMA": "340506", "Location": 4, "Alignment": 3}, "geometry": {"type": "Point", "coordinates": [118.84224844808568, 31.564152268269087]}}]}