{"type": "FeatureCollection", "name": "点", "features": [{"type": "Feature", "properties": {"name": "禅城区", "QUHUADAIMA": "440604", "Location": 4, "Alignment": 3}, "geometry": {"type": "Point", "coordinates": [113.12229044103876, 23.01153410726186]}}, {"type": "Feature", "properties": {"name": "高明区", "QUHUADAIMA": "440608", "Location": 4, "Alignment": 3}, "geometry": {"type": "Point", "coordinates": [112.88992441533382, 22.90033664947734]}}, {"type": "Feature", "properties": {"name": "三水区", "QUHUADAIMA": "440607", "Location": 1, "Alignment": 3}, "geometry": {"type": "Point", "coordinates": [112.89176237245478, 23.15495058644934]}}, {"type": "Feature", "properties": {"name": "南海区", "QUHUADAIMA": "440605", "Location": 6, "Alignment": 1}, "geometry": {"type": "Point", "coordinates": [113.14415433146982, 23.029195697532106]}}, {"type": "Feature", "properties": {"name": "顺德区", "QUHUADAIMA": "440606", "Location": 4, "Alignment": 3}, "geometry": {"type": "Point", "coordinates": [113.30141124464626, 22.80135590973415]}}]}