{"type": "FeatureCollection", "name": "点", "features": [{"type": "Feature", "properties": {"name": "龙门县", "QUHUADAIMA": "441324", "Location": 6, "Alignment": 1}, "geometry": {"type": "Point", "coordinates": [114.2545283381843, 23.732126385729167]}}, {"type": "Feature", "properties": {"name": "博罗县", "QUHUADAIMA": "441322", "Location": 1, "Alignment": 3}, "geometry": {"type": "Point", "coordinates": [114.28601312580118, 23.16497349982988]}}, {"type": "Feature", "properties": {"name": "惠东县", "QUHUADAIMA": "441323", "Location": 6, "Alignment": 1}, "geometry": {"type": "Point", "coordinates": [114.7218050284579, 22.98464067395891]}}, {"type": "Feature", "properties": {"name": "惠阳区", "QUHUADAIMA": "441303", "Location": 6, "Alignment": 1}, "geometry": {"type": "Point", "coordinates": [114.47217149350729, 22.798938314842403]}}, {"type": "Feature", "properties": {"name": "惠城区", "QUHUADAIMA": "441302", "Location": 3, "Alignment": 1}, "geometry": {"type": "Point", "coordinates": [114.38264396606203, 23.088793365486968]}}]}