{"type": "FeatureCollection", "name": "点", "features": [{"type": "Feature", "properties": {"name": "兴宁市", "QUHUADAIMA": "441481", "Location": 6, "Alignment": 1}, "geometry": {"type": "Point", "coordinates": [115.72674602817264, 24.144704233197583]}}, {"type": "Feature", "properties": {"name": "大埔县", "QUHUADAIMA": "441422", "Location": 6, "Alignment": 1}, "geometry": {"type": "Point", "coordinates": [116.6968082367589, 24.353750798014612]}}, {"type": "Feature", "properties": {"name": "平远县", "QUHUADAIMA": "441426", "Location": 6, "Alignment": 1}, "geometry": {"type": "Point", "coordinates": [115.89147664334591, 24.5699696972094]}}, {"type": "Feature", "properties": {"name": "蕉岭县", "QUHUADAIMA": "441427", "Location": 6, "Alignment": 1}, "geometry": {"type": "Point", "coordinates": [116.17140959743372, 24.65886617013922]}}, {"type": "Feature", "properties": {"name": "丰顺县", "QUHUADAIMA": "441423", "Location": 6, "Alignment": 1}, "geometry": {"type": "Point", "coordinates": [116.1806136702668, 23.761946761895167]}}, {"type": "Feature", "properties": {"name": "五华县", "QUHUADAIMA": "441424", "Location": 6, "Alignment": 1}, "geometry": {"type": "Point", "coordinates": [115.77521279228478, 23.921673910103532]}}, {"type": "Feature", "properties": {"name": "梅江区", "QUHUADAIMA": "441402", "Location": 6, "Alignment": 1}, "geometry": {"type": "Point", "coordinates": [116.11541118930865, 24.3125549496298]}}, {"type": "Feature", "properties": {"name": "梅县区", "QUHUADAIMA": "441403", "Location": 4, "Alignment": 3}, "geometry": {"type": "Point", "coordinates": [116.08312741458523, 24.26900573198811]}}]}