{"type": "FeatureCollection", "name": "点", "features": [{"type": "Feature", "properties": {"name": "英德市", "QUHUADAIMA": "441881", "Location": 6, "Alignment": 1}, "geometry": {"type": "Point", "coordinates": [113.4046078956478, 24.18662128290442]}}, {"type": "Feature", "properties": {"name": "连州市", "QUHUADAIMA": "441882", "Location": 6, "Alignment": 1}, "geometry": {"type": "Point", "coordinates": [112.38060939369957, 24.781049724223298]}}, {"type": "Feature", "properties": {"name": "阳山县", "QUHUADAIMA": "441823", "Location": 6, "Alignment": 1}, "geometry": {"type": "Point", "coordinates": [112.6455723461429, 24.47634701389095]}}, {"type": "Feature", "properties": {"name": "连山壮族瑶族自治县", "QUHUADAIMA": "441825", "Location": 5, "Alignment": 4}, "geometry": {"type": "Point", "coordinates": [112.08390895082363, 24.57134307326674]}}, {"type": "Feature", "properties": {"name": "连南瑶族自治县", "QUHUADAIMA": "441826", "Location": 5, "Alignment": 6}, "geometry": {"type": "Point", "coordinates": [112.28937128678471, 24.719545436689742]}}, {"type": "Feature", "properties": {"name": "佛冈县", "QUHUADAIMA": "441821", "Location": 6, "Alignment": 1}, "geometry": {"type": "Point", "coordinates": [113.53340278775913, 23.873364891969835]}}, {"type": "Feature", "properties": {"name": "清城区", "QUHUADAIMA": "441802", "Location": 6, "Alignment": 1}, "geometry": {"type": "Point", "coordinates": [113.0378051516779, 23.70919133547183]}}, {"type": "Feature", "properties": {"name": "清新区", "QUHUADAIMA": "441803", "Location": 1, "Alignment": 3}, "geometry": {"type": "Point", "coordinates": [113.0195042004324, 23.73563635771747]}}]}