{"type": "FeatureCollection", "name": "点", "features": [{"type": "Feature", "properties": {"name": "赤壁市", "QUHUADAIMA": "421281", "Location": 6, "Alignment": 1}, "geometry": {"type": "Point", "coordinates": [113.89446628769875, 29.721579759642548]}}, {"type": "Feature", "properties": {"name": "崇阳县", "QUHUADAIMA": "421223", "Location": 6, "Alignment": 1}, "geometry": {"type": "Point", "coordinates": [114.04655542799128, 29.54388837227821]}}, {"type": "Feature", "properties": {"name": "通山县", "QUHUADAIMA": "421224", "Location": 6, "Alignment": 1}, "geometry": {"type": "Point", "coordinates": [114.51629481691148, 29.60353989699178]}}, {"type": "Feature", "properties": {"name": "通城县", "QUHUADAIMA": "421222", "Location": 6, "Alignment": 1}, "geometry": {"type": "Point", "coordinates": [113.81034571655478, 29.25291085287733]}}, {"type": "Feature", "properties": {"name": "嘉鱼县", "QUHUADAIMA": "421221", "Location": 6, "Alignment": 1}, "geometry": {"type": "Point", "coordinates": [113.90537326806563, 29.976821139191824]}}, {"type": "Feature", "properties": {"name": "咸安区", "QUHUADAIMA": "421202", "Location": 6, "Alignment": 1}, "geometry": {"type": "Point", "coordinates": [114.30193481708986, 29.853492600401577]}}]}