{"type": "FeatureCollection", "name": "点", "features": [{"type": "Feature", "properties": {"name": "应城市", "QUHUADAIMA": "420981", "Location": 6, "Alignment": 1}, "geometry": {"type": "Point", "coordinates": [113.56902857557492, 30.94821763149754]}}, {"type": "Feature", "properties": {"name": "汉川市", "QUHUADAIMA": "420984", "Location": 6, "Alignment": 1}, "geometry": {"type": "Point", "coordinates": [113.8361985762025, 30.64431799033539]}}, {"type": "Feature", "properties": {"name": "安陆市", "QUHUADAIMA": "420982", "Location": 6, "Alignment": 1}, "geometry": {"type": "Point", "coordinates": [113.68659954331676, 31.259461482449698]}}, {"type": "Feature", "properties": {"name": "大悟县", "QUHUADAIMA": "420922", "Location": 6, "Alignment": 1}, "geometry": {"type": "Point", "coordinates": [114.11440449796272, 31.563957056962156]}}, {"type": "Feature", "properties": {"name": "云梦县", "QUHUADAIMA": "420923", "Location": 6, "Alignment": 1}, "geometry": {"type": "Point", "coordinates": [113.74295711436785, 31.026417359264098]}}, {"type": "Feature", "properties": {"name": "孝昌县", "QUHUADAIMA": "420921", "Location": 6, "Alignment": 1}, "geometry": {"type": "Point", "coordinates": [113.97734745763583, 31.256643081313126]}}, {"type": "Feature", "properties": {"name": "孝南区", "QUHUADAIMA": "420902", "Location": 6, "Alignment": 1}, "geometry": {"type": "Point", "coordinates": [113.90906075964868, 30.91845146625453]}}]}