{"type": "FeatureCollection", "name": "点", "features": [{"type": "Feature", "properties": {"name": "芦溪县", "QUHUADAIMA": "360323", "Location": 6, "Alignment": 1}, "geometry": {"type": "Point", "coordinates": [114.0418936617919, 27.635147698501648]}}, {"type": "Feature", "properties": {"name": "莲花县", "QUHUADAIMA": "360321", "Location": 2, "Alignment": 2}, "geometry": {"type": "Point", "coordinates": [113.96096804379845, 27.130423587380918]}}, {"type": "Feature", "properties": {"name": "上栗县", "QUHUADAIMA": "360322", "Location": 6, "Alignment": 1}, "geometry": {"type": "Point", "coordinates": [113.79430354850638, 27.873511040845102]}}, {"type": "Feature", "properties": {"name": "湘东区", "QUHUADAIMA": "360313", "Location": 4, "Alignment": 3}, "geometry": {"type": "Point", "coordinates": [113.7429890717872, 27.645737777954217]}}, {"type": "Feature", "properties": {"name": "安源区", "QUHUADAIMA": "360302", "Location": 6, "Alignment": 1}, "geometry": {"type": "Point", "coordinates": [113.87334959784991, 27.616116447660854]}}]}