{"type": "FeatureCollection", "name": "点", "features": [{"type": "Feature", "properties": {"name": "肇州县", "QUHUADAIMA": "230621", "Location": 6, "Alignment": 1}, "geometry": {"type": "Point", "coordinates": [125.27000400664039, 45.70304929070272]}}, {"type": "Feature", "properties": {"name": "肇源县", "QUHUADAIMA": "230622", "Location": 6, "Alignment": 1}, "geometry": {"type": "Point", "coordinates": [125.08446026081364, 45.516188579013836]}}, {"type": "Feature", "properties": {"name": "杜尔伯特蒙古族自治县", "QUHUADAIMA": "230624", "Location": 1, "Alignment": 3}, "geometry": {"type": "Point", "coordinates": [124.44090538748598, 46.85889475762289]}}, {"type": "Feature", "properties": {"name": "林甸县", "QUHUADAIMA": "230623", "Location": 6, "Alignment": 1}, "geometry": {"type": "Point", "coordinates": [124.87336097907543, 47.18140737665097]}}, {"type": "Feature", "properties": {"name": "大同区", "QUHUADAIMA": "230606", "Location": 4, "Alignment": 3}, "geometry": {"type": "Point", "coordinates": [124.82398213011389, 46.032789739951994]}}, {"type": "Feature", "properties": {"name": "让胡路区", "QUHUADAIMA": "230604", "Location": 1, "Alignment": 3}, "geometry": {"type": "Point", "coordinates": [124.86153589585737, 46.65192437797765]}}, {"type": "Feature", "properties": {"name": "龙凤区", "QUHUADAIMA": "230603", "Location": 8, "Alignment": 2}, "geometry": {"type": "Point", "coordinates": [125.10684503431378, 46.523544194504595]}}, {"type": "Feature", "properties": {"name": "红岗区", "QUHUADAIMA": "230605", "Location": 8, "Alignment": 2}, "geometry": {"type": "Point", "coordinates": [124.88619297355669, 46.400413001103615]}}, {"type": "Feature", "properties": {"name": "萨尔图区", "QUHUADAIMA": "230602", "Location": 2, "Alignment": 2}, "geometry": {"type": "Point", "coordinates": [125.08511529530793, 46.59003551503167]}}]}