{"type": "FeatureCollection", "name": "点", "features": [{"type": "Feature", "properties": {"name": "密山市", "QUHUADAIMA": "230382", "Location": 6, "Alignment": 1}, "geometry": {"type": "Point", "coordinates": [131.86969660677227, 45.53991999308591]}}, {"type": "Feature", "properties": {"name": "虎林市", "QUHUADAIMA": "230381", "Location": 6, "Alignment": 1}, "geometry": {"type": "Point", "coordinates": [132.9745815536362, 45.76458425887402]}}, {"type": "Feature", "properties": {"name": "鸡东县", "QUHUADAIMA": "230321", "Location": 6, "Alignment": 1}, "geometry": {"type": "Point", "coordinates": [131.14423536028247, 45.24752368121127]}}, {"type": "Feature", "properties": {"name": "麻山区", "QUHUADAIMA": "230307", "Location": 8, "Alignment": 2}, "geometry": {"type": "Point", "coordinates": [130.5354194037141, 45.203541095951564]}}, {"type": "Feature", "properties": {"name": "滴道区", "QUHUADAIMA": "230304", "Location": 2, "Alignment": 2}, "geometry": {"type": "Point", "coordinates": [130.78305471718588, 45.35926813688217]}}, {"type": "Feature", "properties": {"name": "恒山区", "QUHUADAIMA": "230303", "Location": 8, "Alignment": 2}, "geometry": {"type": "Point", "coordinates": [130.91212416670854, 45.21346854458115]}}, {"type": "Feature", "properties": {"name": "城子河区", "QUHUADAIMA": "230306", "Location": 2, "Alignment": 2}, "geometry": {"type": "Point", "coordinates": [130.9895969219874, 45.3401037677064]}}, {"type": "Feature", "properties": {"name": "梨树区", "QUHUADAIMA": "230305", "Location": 6, "Alignment": 1}, "geometry": {"type": "Point", "coordinates": [130.6965279006173, 45.09036678262238]}}, {"type": "Feature", "properties": {"name": "鸡冠区", "QUHUADAIMA": "230302", "Location": 8, "Alignment": 2}, "geometry": {"type": "Point", "coordinates": [130.95591453098118, 45.29532099173256]}}]}