{"type": "FeatureCollection", "name": "点", "features": [{"type": "Feature", "properties": {"name": "萝北县", "QUHUADAIMA": "230421", "Location": 6, "Alignment": 1}, "geometry": {"type": "Point", "coordinates": [130.82354028037358, 47.5739091036124]}}, {"type": "Feature", "properties": {"name": "绥滨县", "QUHUADAIMA": "230422", "Location": 2, "Alignment": 2}, "geometry": {"type": "Point", "coordinates": [131.8554476511406, 47.28569951978782]}}, {"type": "Feature", "properties": {"name": "工农区", "QUHUADAIMA": "230403", "Location": 7, "Alignment": 3}, "geometry": {"type": "Point", "coordinates": [130.2690026708719, 47.319054183923434]}}, {"type": "Feature", "properties": {"name": "向阳区", "QUHUADAIMA": "230402", "Location": 1, "Alignment": 3}, "geometry": {"type": "Point", "coordinates": [130.291284301732, 47.337508337044895]}}, {"type": "Feature", "properties": {"name": "兴山区", "QUHUADAIMA": "230407", "Location": 2, "Alignment": 4}, "geometry": {"type": "Point", "coordinates": [130.32116616825198, 47.376398275090565]}}, {"type": "Feature", "properties": {"name": "兴安区", "QUHUADAIMA": "230405", "Location": 8, "Alignment": 6}, "geometry": {"type": "Point", "coordinates": [130.23191368039073, 47.247648135568255]}}, {"type": "Feature", "properties": {"name": "东山区", "QUHUADAIMA": "230406", "Location": 6, "Alignment": 1}, "geometry": {"type": "Point", "coordinates": [130.31830235147285, 47.34270997989979]}}, {"type": "Feature", "properties": {"name": "南山区", "QUHUADAIMA": "230404", "Location": 8, "Alignment": 6}, "geometry": {"type": "Point", "coordinates": [130.28208099660156, 47.30879001501685]}}]}