{"type": "FeatureCollection", "name": "点", "features": [{"type": "Feature", "properties": {"name": "北安市", "QUHUADAIMA": "231181", "Location": 6, "Alignment": 1}, "geometry": {"type": "Point", "coordinates": [126.51291848364824, 48.24131293377039]}}, {"type": "Feature", "properties": {"name": "五大连池市", "QUHUADAIMA": "231182", "Location": 6, "Alignment": 1}, "geometry": {"type": "Point", "coordinates": [126.19348738770789, 48.50920121823058]}}, {"type": "Feature", "properties": {"name": "嫩江市", "QUHUADAIMA": "231183", "Location": 6, "Alignment": 1}, "geometry": {"type": "Point", "coordinates": [125.2251281553669, 49.171532597213826]}}, {"type": "Feature", "properties": {"name": "孙吴县", "QUHUADAIMA": "231124", "Location": 6, "Alignment": 1}, "geometry": {"type": "Point", "coordinates": [127.31978966926165, 49.41874473325281]}}, {"type": "Feature", "properties": {"name": "逊克县", "QUHUADAIMA": "231123", "Location": 8, "Alignment": 2}, "geometry": {"type": "Point", "coordinates": [128.47221124910507, 49.57628598041004]}}, {"type": "Feature", "properties": {"name": "爱辉区", "QUHUADAIMA": "231102", "Location": 4, "Alignment": 3}, "geometry": {"type": "Point", "coordinates": [127.48989992637101, 50.247061554623855]}}]}