{"type": "FeatureCollection", "name": "点", "features": [{"type": "Feature", "properties": {"name": "涟源市", "QUHUADAIMA": "431382", "Location": 6, "Alignment": 1}, "geometry": {"type": "Point", "coordinates": [111.67070463278685, 27.690951589023722]}}, {"type": "Feature", "properties": {"name": "冷水江市", "QUHUADAIMA": "431381", "Location": 9, "Alignment": 1}, "geometry": {"type": "Point", "coordinates": [111.4366985410914, 27.691340323425305]}}, {"type": "Feature", "properties": {"name": "双峰县", "QUHUADAIMA": "431321", "Location": 8, "Alignment": 2}, "geometry": {"type": "Point", "coordinates": [112.19656683143191, 27.464466231101333]}}, {"type": "Feature", "properties": {"name": "新化县", "QUHUADAIMA": "431322", "Location": 1, "Alignment": 3}, "geometry": {"type": "Point", "coordinates": [111.30772063904082, 27.744906829166865]}}, {"type": "Feature", "properties": {"name": "娄星区", "QUHUADAIMA": "431302", "Location": 2, "Alignment": 2}, "geometry": {"type": "Point", "coordinates": [112.00860717167417, 27.732266602300097]}}]}