{"type": "FeatureCollection", "name": "点", "features": [{"type": "Feature", "properties": {"name": "韶山市", "QUHUADAIMA": "430382", "Location": 8, "Alignment": 2}, "geometry": {"type": "Point", "coordinates": [112.52785030146173, 27.925087007977414]}}, {"type": "Feature", "properties": {"name": "湘乡市", "QUHUADAIMA": "430381", "Location": 4, "Alignment": 3}, "geometry": {"type": "Point", "coordinates": [112.52456301681673, 27.731441384886185]}}, {"type": "Feature", "properties": {"name": "湘潭县", "QUHUADAIMA": "430321", "Location": 8, "Alignment": 2}, "geometry": {"type": "Point", "coordinates": [112.93741681030687, 27.788208644945765]}}, {"type": "Feature", "properties": {"name": "雨湖区", "QUHUADAIMA": "430302", "Location": 2, "Alignment": 2}, "geometry": {"type": "Point", "coordinates": [112.90833533927149, 27.85815625215753]}}, {"type": "Feature", "properties": {"name": "岳塘区", "QUHUADAIMA": "430304", "Location": 8, "Alignment": 2}, "geometry": {"type": "Point", "coordinates": [112.96375682450953, 27.8636851175042]}}]}