{"type": "FeatureCollection", "name": "点", "features": [{"type": "Feature", "properties": {"name": "耒阳市", "QUHUADAIMA": "430481", "Location": 6, "Alignment": 1}, "geometry": {"type": "Point", "coordinates": [112.85779981412, 26.410029561133708]}}, {"type": "Feature", "properties": {"name": "常宁市", "QUHUADAIMA": "430482", "Location": 8, "Alignment": 2}, "geometry": {"type": "Point", "coordinates": [112.39278046872688, 26.409013149220865]}}, {"type": "Feature", "properties": {"name": "衡东县", "QUHUADAIMA": "430424", "Location": 6, "Alignment": 1}, "geometry": {"type": "Point", "coordinates": [112.9523285970788, 27.089006858972372]}}, {"type": "Feature", "properties": {"name": "衡山县", "QUHUADAIMA": "430423", "Location": 2, "Alignment": 2}, "geometry": {"type": "Point", "coordinates": [112.86461111232842, 27.239950367529353]}}, {"type": "Feature", "properties": {"name": "衡南县", "QUHUADAIMA": "430422", "Location": 8, "Alignment": 2}, "geometry": {"type": "Point", "coordinates": [112.67188024217046, 26.72899531244812]}}, {"type": "Feature", "properties": {"name": "祁东县", "QUHUADAIMA": "430426", "Location": 4, "Alignment": 3}, "geometry": {"type": "Point", "coordinates": [112.12734438073936, 26.785321768592645]}}, {"type": "Feature", "properties": {"name": "衡阳县", "QUHUADAIMA": "430421", "Location": 2, "Alignment": 2}, "geometry": {"type": "Point", "coordinates": [112.37652082760921, 26.970175149933226]}}, {"type": "Feature", "properties": {"name": "南岳区", "QUHUADAIMA": "430412", "Location": 4, "Alignment": 3}, "geometry": {"type": "Point", "coordinates": [112.72802903516771, 27.243570221204944]}}, {"type": "Feature", "properties": {"name": "雁峰区", "QUHUADAIMA": "430406", "Location": 8, "Alignment": 2}, "geometry": {"type": "Point", "coordinates": [112.6140069899509, 26.88982898068572]}}, {"type": "Feature", "properties": {"name": "珠晖区", "QUHUADAIMA": "430405", "Location": 6, "Alignment": 1}, "geometry": {"type": "Point", "coordinates": [112.62457690311118, 26.894088790780057]}}, {"type": "Feature", "properties": {"name": "石鼓区", "QUHUADAIMA": "430407", "Location": 2, "Alignment": 2}, "geometry": {"type": "Point", "coordinates": [112.60994974128319, 26.903888653558994]}}, {"type": "Feature", "properties": {"name": "蒸湘区", "QUHUADAIMA": "430408", "Location": 7, "Alignment": 3}, "geometry": {"type": "Point", "coordinates": [112.56746779611807, 26.915344120991893]}}]}