{"type": "FeatureCollection", "name": "点", "features": [{"type": "Feature", "properties": {"name": "资兴市", "QUHUADAIMA": "431081", "Location": 6, "Alignment": 1}, "geometry": {"type": "Point", "coordinates": [113.239783285194, 25.97262009225177]}}, {"type": "Feature", "properties": {"name": "桂东县", "QUHUADAIMA": "431027", "Location": 7, "Alignment": 3}, "geometry": {"type": "Point", "coordinates": [113.94584909532732, 26.07902380394655]}}, {"type": "Feature", "properties": {"name": "永兴县", "QUHUADAIMA": "431023", "Location": 2, "Alignment": 2}, "geometry": {"type": "Point", "coordinates": [113.11589330610215, 26.13036354913098]}}, {"type": "Feature", "properties": {"name": "安仁县", "QUHUADAIMA": "431028", "Location": 8, "Alignment": 2}, "geometry": {"type": "Point", "coordinates": [113.27358872233185, 26.70899286545854]}}, {"type": "Feature", "properties": {"name": "临武县", "QUHUADAIMA": "431025", "Location": 8, "Alignment": 2}, "geometry": {"type": "Point", "coordinates": [112.55685518626154, 25.283136074009164]}}, {"type": "Feature", "properties": {"name": "宜章县", "QUHUADAIMA": "431022", "Location": 2, "Alignment": 2}, "geometry": {"type": "Point", "coordinates": [112.95390380264116, 25.404318895668407]}}, {"type": "Feature", "properties": {"name": "汝城县", "QUHUADAIMA": "431026", "Location": 8, "Alignment": 2}, "geometry": {"type": "Point", "coordinates": [113.68562159688477, 25.55177959948532]}}, {"type": "Feature", "properties": {"name": "桂阳县", "QUHUADAIMA": "431021", "Location": 1, "Alignment": 3}, "geometry": {"type": "Point", "coordinates": [112.73561276200655, 25.737451907282143]}}, {"type": "Feature", "properties": {"name": "嘉禾县", "QUHUADAIMA": "431024", "Location": 2, "Alignment": 2}, "geometry": {"type": "Point", "coordinates": [112.36894210160253, 25.58532100129219]}}, {"type": "Feature", "properties": {"name": "苏仙区", "QUHUADAIMA": "431003", "Location": 6, "Alignment": 1}, "geometry": {"type": "Point", "coordinates": [113.04359626871789, 25.803159995705943]}}, {"type": "Feature", "properties": {"name": "北湖区", "QUHUADAIMA": "431002", "Location": 7, "Alignment": 3}, "geometry": {"type": "Point", "coordinates": [113.02637113967664, 25.791570217764253]}}]}