{"type": "FeatureCollection", "name": "点", "features": [{"type": "Feature", "properties": {"name": "浏阳市", "QUHUADAIMA": "430181", "Location": 6, "Alignment": 1}, "geometry": {"type": "Point", "coordinates": [113.63177185496178, 28.144632877852445]}}, {"type": "Feature", "properties": {"name": "长沙县", "QUHUADAIMA": "430121", "Location": 6, "Alignment": 1}, "geometry": {"type": "Point", "coordinates": [113.07963193439731, 28.248994019112935]}}, {"type": "Feature", "properties": {"name": "宁乡市", "QUHUADAIMA": "430182", "Location": 4, "Alignment": 3}, "geometry": {"type": "Point", "coordinates": [112.5565733682756, 28.258446132870095]}}, {"type": "Feature", "properties": {"name": "天心区", "QUHUADAIMA": "430103", "Location": 4, "Alignment": 3}, "geometry": {"type": "Point", "coordinates": [112.99019620371647, 28.129389807473494]}}, {"type": "Feature", "properties": {"name": "芙蓉区", "QUHUADAIMA": "430102", "Location": 6, "Alignment": 1}, "geometry": {"type": "Point", "coordinates": [113.0307805150976, 28.189987726968337]}}, {"type": "Feature", "properties": {"name": "雨花区", "QUHUADAIMA": "430111", "Location": 6, "Alignment": 1}, "geometry": {"type": "Point", "coordinates": [113.03597304164576, 28.13844787643248]}}, {"type": "Feature", "properties": {"name": "开福区", "QUHUADAIMA": "430105", "Location": 2, "Alignment": 2}, "geometry": {"type": "Point", "coordinates": [112.98618965815241, 28.255039904121016]}}, {"type": "Feature", "properties": {"name": "岳麓区", "QUHUADAIMA": "430104", "Location": 4, "Alignment": 3}, "geometry": {"type": "Point", "coordinates": [112.93467108759876, 28.236369454453992]}}, {"type": "Feature", "properties": {"name": "望城区", "QUHUADAIMA": "430112", "Location": 2, "Alignment": 2}, "geometry": {"type": "Point", "coordinates": [112.8184134345499, 28.37161856019729]}}]}