{"type": "FeatureCollection", "name": "点", "features": [{"type": "Feature", "properties": {"name": "通渭县", "QUHUADAIMA": "621121", "Location": 6, "Alignment": 1}, "geometry": {"type": "Point", "coordinates": [105.24838626052559, 35.208151827255854]}}, {"type": "Feature", "properties": {"name": "陇西县", "QUHUADAIMA": "621122", "Location": 6, "Alignment": 1}, "geometry": {"type": "Point", "coordinates": [104.63365082494143, 35.00468981226108]}}, {"type": "Feature", "properties": {"name": "临洮县", "QUHUADAIMA": "621124", "Location": 6, "Alignment": 1}, "geometry": {"type": "Point", "coordinates": [103.86495387586109, 35.37604767543849]}}, {"type": "Feature", "properties": {"name": "渭源县", "QUHUADAIMA": "621123", "Location": 6, "Alignment": 1}, "geometry": {"type": "Point", "coordinates": [104.21635459755396, 35.13448716220113]}}, {"type": "Feature", "properties": {"name": "漳县", "QUHUADAIMA": "621125", "Location": 6, "Alignment": 1}, "geometry": {"type": "Point", "coordinates": [104.47136920397472, 34.84996561391411]}}, {"type": "Feature", "properties": {"name": "岷县", "QUHUADAIMA": "621126", "Location": 6, "Alignment": 1}, "geometry": {"type": "Point", "coordinates": [104.036022165825, 34.436182362606196]}}, {"type": "Feature", "properties": {"name": "安定区", "QUHUADAIMA": "621102", "Location": 6, "Alignment": 1}, "geometry": {"type": "Point", "coordinates": [104.62613453869785, 35.58200629385892]}}]}