{"type": "FeatureCollection", "name": "点", "features": [{"type": "Feature", "properties": {"name": "福鼎市", "QUHUADAIMA": "350982", "Location": 4, "Alignment": 3}, "geometry": {"type": "Point", "coordinates": [120.2154901224145, 27.332308202634305]}}, {"type": "Feature", "properties": {"name": "福安市", "QUHUADAIMA": "350981", "Location": 6, "Alignment": 1}, "geometry": {"type": "Point", "coordinates": [119.64208484983808, 27.087438666110696]}}, {"type": "Feature", "properties": {"name": "周宁县", "QUHUADAIMA": "350925", "Location": 4, "Alignment": 3}, "geometry": {"type": "Point", "coordinates": [119.33641296445046, 27.110369265304826]}}, {"type": "Feature", "properties": {"name": "柘荣县", "QUHUADAIMA": "350926", "Location": 8, "Alignment": 1}, "geometry": {"type": "Point", "coordinates": [119.90122961960068, 27.23812522465302]}}, {"type": "Feature", "properties": {"name": "寿宁县", "QUHUADAIMA": "350924", "Location": 6, "Alignment": 1}, "geometry": {"type": "Point", "coordinates": [119.50594455001601, 27.461889457805686]}}, {"type": "Feature", "properties": {"name": "古田县", "QUHUADAIMA": "350922", "Location": 6, "Alignment": 1}, "geometry": {"type": "Point", "coordinates": [118.74439615047231, 26.579875397615425]}}, {"type": "Feature", "properties": {"name": "霞浦县", "QUHUADAIMA": "350921", "Location": 2, "Alignment": 1}, "geometry": {"type": "Point", "coordinates": [119.99977397138328, 26.891624832088052]}}, {"type": "Feature", "properties": {"name": "屏南县", "QUHUADAIMA": "350923", "Location": 1, "Alignment": 3}, "geometry": {"type": "Point", "coordinates": [118.98727909886223, 26.91248386341693]}}, {"type": "Feature", "properties": {"name": "蕉城区", "QUHUADAIMA": "350902", "Location": 1, "Alignment": 3}, "geometry": {"type": "Point", "coordinates": [119.52652278984768, 26.66490073804568]}}]}