{"type": "FeatureCollection", "name": "点", "features": [{"type": "Feature", "properties": {"name": "长乐区", "QUHUADAIMA": "350112", "Location": 4, "Alignment": 3}, "geometry": {"type": "Point", "coordinates": [119.52180893468031, 25.967588292930365]}}, {"type": "Feature", "properties": {"name": "福清市", "QUHUADAIMA": "350181", "Location": 4, "Alignment": 3}, "geometry": {"type": "Point", "coordinates": [119.38341954205325, 25.719643555284794]}}, {"type": "Feature", "properties": {"name": "闽侯县", "QUHUADAIMA": "350121", "Location": 6, "Alignment": 1}, "geometry": {"type": "Point", "coordinates": [119.13976288426049, 26.14897806753915]}}, {"type": "Feature", "properties": {"name": "连江县", "QUHUADAIMA": "350122", "Location": 6, "Alignment": 1}, "geometry": {"type": "Point", "coordinates": [119.53786269449448, 26.199649360828857]}}, {"type": "Feature", "properties": {"name": "闽清县", "QUHUADAIMA": "350124", "Location": 6, "Alignment": 1}, "geometry": {"type": "Point", "coordinates": [118.8651984001109, 26.223266327454045]}}, {"type": "Feature", "properties": {"name": "罗源县", "QUHUADAIMA": "350123", "Location": 6, "Alignment": 1}, "geometry": {"type": "Point", "coordinates": [119.54873155552492, 26.489785985736873]}}, {"type": "Feature", "properties": {"name": "平潭县", "QUHUADAIMA": "350128", "Location": 3, "Alignment": 1}, "geometry": {"type": "Point", "coordinates": [119.78443572412495, 25.50942005595817]}}, {"type": "Feature", "properties": {"name": "永泰县", "QUHUADAIMA": "350125", "Location": 1, "Alignment": 3}, "geometry": {"type": "Point", "coordinates": [118.93683736209051, 25.87296353721001]}}, {"type": "Feature", "properties": {"name": "仓山区", "QUHUADAIMA": "350104", "Location": 4, "Alignment": 3}, "geometry": {"type": "Point", "coordinates": [119.27015920662653, 26.051624499840653]}}, {"type": "Feature", "properties": {"name": "台江区", "QUHUADAIMA": "350103", "Location": 9, "Alignment": 1}, "geometry": {"type": "Point", "coordinates": [119.31360117386467, 26.054076030191435]}}, {"type": "Feature", "properties": {"name": "鼓楼区", "QUHUADAIMA": "350102", "Location": 1, "Alignment": 3}, "geometry": {"type": "Point", "coordinates": [119.30404764745266, 26.0849530424321]}}, {"type": "Feature", "properties": {"name": "晋安区", "QUHUADAIMA": "350111", "Location": 6, "Alignment": 1}, "geometry": {"type": "Point", "coordinates": [119.32825210442185, 26.08373187015954]}}, {"type": "Feature", "properties": {"name": "马尾区", "QUHUADAIMA": "350105", "Location": 6, "Alignment": 1}, "geometry": {"type": "Point", "coordinates": [119.44844463359738, 25.99296478326353]}}]}