{"type": "FeatureCollection", "name": "点", "features": [{"type": "Feature", "properties": {"name": "漳平市", "QUHUADAIMA": "350881", "Location": 5, "Alignment": 2}, "geometry": {"type": "Point", "coordinates": [117.41692626709933, 25.29134406501651]}}, {"type": "Feature", "properties": {"name": "连城县", "QUHUADAIMA": "350825", "Location": 6, "Alignment": 1}, "geometry": {"type": "Point", "coordinates": [116.75867925125482, 25.710841511676744]}}, {"type": "Feature", "properties": {"name": "长汀县", "QUHUADAIMA": "350821", "Location": 6, "Alignment": 1}, "geometry": {"type": "Point", "coordinates": [116.35945644691525, 25.83370681946385]}}, {"type": "Feature", "properties": {"name": "上杭县", "QUHUADAIMA": "350823", "Location": 6, "Alignment": 1}, "geometry": {"type": "Point", "coordinates": [116.41634389673298, 25.05446862829327]}}, {"type": "Feature", "properties": {"name": "武平县", "QUHUADAIMA": "350824", "Location": 6, "Alignment": 1}, "geometry": {"type": "Point", "coordinates": [116.10356715539582, 25.09570861033197]}}, {"type": "Feature", "properties": {"name": "永定区", "QUHUADAIMA": "350803", "Location": 6, "Alignment": 1}, "geometry": {"type": "Point", "coordinates": [116.73155611193356, 24.72899459047859]}}, {"type": "Feature", "properties": {"name": "新罗区", "QUHUADAIMA": "350802", "Location": 6, "Alignment": 1}, "geometry": {"type": "Point", "coordinates": [117.03537859410214, 25.098976485349244]}}]}