{"type": "FeatureCollection", "name": "点", "features": [{"type": "Feature", "properties": {"name": "府谷县", "QUHUADAIMA": "610822", "Location": 1, "Alignment": 3}, "geometry": {"type": "Point", "coordinates": [111.07689137173858, 39.02817606625466]}}, {"type": "Feature", "properties": {"name": "佳县", "QUHUADAIMA": "610828", "Location": 4, "Alignment": 3}, "geometry": {"type": "Point", "coordinates": [110.49536361047173, 38.021123039854274]}}, {"type": "Feature", "properties": {"name": "神木市", "QUHUADAIMA": "610881", "Location": 6, "Alignment": 1}, "geometry": {"type": "Point", "coordinates": [110.49851735920633, 38.82123015591212]}}, {"type": "Feature", "properties": {"name": "子洲县", "QUHUADAIMA": "610831", "Location": 4, "Alignment": 3}, "geometry": {"type": "Point", "coordinates": [110.03374438018464, 37.61179993621134]}}, {"type": "Feature", "properties": {"name": "米脂县", "QUHUADAIMA": "610827", "Location": 6, "Alignment": 1}, "geometry": {"type": "Point", "coordinates": [110.18702901795534, 37.75608959323142]}}, {"type": "Feature", "properties": {"name": "清涧县", "QUHUADAIMA": "610830", "Location": 6, "Alignment": 1}, "geometry": {"type": "Point", "coordinates": [110.12521771001276, 37.08437164961868]}}, {"type": "Feature", "properties": {"name": "绥德县", "QUHUADAIMA": "610826", "Location": 6, "Alignment": 1}, "geometry": {"type": "Point", "coordinates": [110.26192311553044, 37.500231449287085]}}, {"type": "Feature", "properties": {"name": "横山区", "QUHUADAIMA": "610803", "Location": 6, "Alignment": 1}, "geometry": {"type": "Point", "coordinates": [109.29459172249908, 37.95982054393728]}}, {"type": "Feature", "properties": {"name": "靖边县", "QUHUADAIMA": "610824", "Location": 6, "Alignment": 1}, "geometry": {"type": "Point", "coordinates": [108.80863940799217, 37.593490309434245]}}, {"type": "Feature", "properties": {"name": "定边县", "QUHUADAIMA": "610825", "Location": 6, "Alignment": 1}, "geometry": {"type": "Point", "coordinates": [107.60665463272896, 37.59164969209295]}}, {"type": "Feature", "properties": {"name": "吴堡县", "QUHUADAIMA": "610829", "Location": 3, "Alignment": 1}, "geometry": {"type": "Point", "coordinates": [110.73958645715035, 37.45205222890666]}}, {"type": "Feature", "properties": {"name": "榆阳区", "QUHUADAIMA": "610802", "Location": 6, "Alignment": 1}, "geometry": {"type": "Point", "coordinates": [109.7574013023241, 38.292062265076005]}}]}