{"type": "FeatureCollection", "name": "点", "features": [{"type": "Feature", "properties": {"name": "鄠邑区", "QUHUADAIMA": "610118", "Location": 6, "Alignment": 1}, "geometry": {"type": "Point", "coordinates": [108.60787991627274, 34.112276358879626]}}, {"type": "Feature", "properties": {"name": "蓝田县", "QUHUADAIMA": "610122", "Location": 6, "Alignment": 1}, "geometry": {"type": "Point", "coordinates": [109.32179222753174, 34.15332299808894]}}, {"type": "Feature", "properties": {"name": "周至县", "QUHUADAIMA": "610124", "Location": 6, "Alignment": 1}, "geometry": {"type": "Point", "coordinates": [108.21882675758984, 34.1627334153358]}}, {"type": "Feature", "properties": {"name": "高陵区", "QUHUADAIMA": "610117", "Location": 8, "Alignment": 2}, "geometry": {"type": "Point", "coordinates": [109.09136388263349, 34.53682495932759]}}, {"type": "Feature", "properties": {"name": "雁塔区", "QUHUADAIMA": "610113", "Location": 6, "Alignment": 1}, "geometry": {"type": "Point", "coordinates": [108.94912142122911, 34.222654019060414]}}, {"type": "Feature", "properties": {"name": "新城区", "QUHUADAIMA": "610102", "Location": 6, "Alignment": 1}, "geometry": {"type": "Point", "coordinates": [108.9629691622704, 34.26700036553137]}}, {"type": "Feature", "properties": {"name": "莲湖区", "QUHUADAIMA": "610104", "Location": 4, "Alignment": 3}, "geometry": {"type": "Point", "coordinates": [108.94014805236475, 34.26778845134511]}}, {"type": "Feature", "properties": {"name": "未央区", "QUHUADAIMA": "610112", "Location": 2, "Alignment": 2}, "geometry": {"type": "Point", "coordinates": [108.94751872476652, 34.294857890281136]}}, {"type": "Feature", "properties": {"name": "阎良区", "QUHUADAIMA": "610114", "Location": 6, "Alignment": 1}, "geometry": {"type": "Point", "coordinates": [109.23376424723452, 34.65389592019544]}}, {"type": "Feature", "properties": {"name": "长安区", "QUHUADAIMA": "610116", "Location": 6, "Alignment": 1}, "geometry": {"type": "Point", "coordinates": [108.94603298058574, 34.163126882851515]}}, {"type": "Feature", "properties": {"name": "临潼区", "QUHUADAIMA": "610115", "Location": 3, "Alignment": 1}, "geometry": {"type": "Point", "coordinates": [109.21699374672532, 34.370192037622296]}}, {"type": "Feature", "properties": {"name": "灞桥区", "QUHUADAIMA": "610111", "Location": 2, "Alignment": 2}, "geometry": {"type": "Point", "coordinates": [109.06357872212946, 34.274693641682475]}}, {"type": "Feature", "properties": {"name": "碑林区", "QUHUADAIMA": "610103", "Location": 7, "Alignment": 3}, "geometry": {"type": "Point", "coordinates": [108.93504435305938, 34.23287714020721]}}]}