{"type": "FeatureCollection", "name": "点", "features": [{"type": "Feature", "properties": {"name": "灯塔市", "QUHUADAIMA": "211081", "Location": 6, "Alignment": 1}, "geometry": {"type": "Point", "coordinates": [123.34072687331222, 41.42242848159819]}}, {"type": "Feature", "properties": {"name": "辽阳县", "QUHUADAIMA": "211021", "Location": 1, "Alignment": 3}, "geometry": {"type": "Point", "coordinates": [123.09877084280922, 41.201892357210475]}}, {"type": "Feature", "properties": {"name": "白塔区", "QUHUADAIMA": "211002", "Location": 2, "Alignment": 2}, "geometry": {"type": "Point", "coordinates": [123.17525298663666, 41.26739483035986]}}, {"type": "Feature", "properties": {"name": "宏伟区", "QUHUADAIMA": "211004", "Location": 6, "Alignment": 1}, "geometry": {"type": "Point", "coordinates": [123.20859125754164, 41.19923759599874]}}, {"type": "Feature", "properties": {"name": "太子河区", "QUHUADAIMA": "211011", "Location": 6, "Alignment": 1}, "geometry": {"type": "Point", "coordinates": [123.1825018750171, 41.248612103532594]}}, {"type": "Feature", "properties": {"name": "弓长岭区", "QUHUADAIMA": "211005", "Location": 6, "Alignment": 1}, "geometry": {"type": "Point", "coordinates": [123.42124446009316, 41.14739127578267]}}, {"type": "Feature", "properties": {"name": "文圣区", "QUHUADAIMA": "211003", "Location": 3, "Alignment": 1}, "geometry": {"type": "Point", "coordinates": [123.22680927014588, 41.2802029656904]}}]}