{"type": "FeatureCollection", "name": "点", "features": [{"type": "Feature", "properties": {"name": "北镇市", "QUHUADAIMA": "210782", "Location": 6, "Alignment": 1}, "geometry": {"type": "Point", "coordinates": [121.79878348941843, 41.59610696503979]}}, {"type": "Feature", "properties": {"name": "凌海市", "QUHUADAIMA": "210781", "Location": 6, "Alignment": 1}, "geometry": {"type": "Point", "coordinates": [121.35985908584091, 41.17102282053329]}}, {"type": "Feature", "properties": {"name": "黑山县", "QUHUADAIMA": "210726", "Location": 6, "Alignment": 1}, "geometry": {"type": "Point", "coordinates": [122.11971845752748, 41.69527028047989]}}, {"type": "Feature", "properties": {"name": "义县", "QUHUADAIMA": "210727", "Location": 6, "Alignment": 1}, "geometry": {"type": "Point", "coordinates": [121.23486270423739, 41.53061739259599]}}, {"type": "Feature", "properties": {"name": "凌河区", "QUHUADAIMA": "210703", "Location": 6, "Alignment": 1}, "geometry": {"type": "Point", "coordinates": [121.15474945340875, 41.110402129018986]}}, {"type": "Feature", "properties": {"name": "太和区", "QUHUADAIMA": "210711", "Location": 8, "Alignment": 2}, "geometry": {"type": "Point", "coordinates": [121.10116938825809, 41.107251432537026]}}, {"type": "Feature", "properties": {"name": "古塔区", "QUHUADAIMA": "210702", "Location": 2, "Alignment": 2}, "geometry": {"type": "Point", "coordinates": [121.12781310768105, 41.11533204567403]}}]}