{"type": "FeatureCollection", "name": "点", "features": [{"type": "Feature", "properties": {"name": "彰武县", "QUHUADAIMA": "210922", "Location": 6, "Alignment": 1}, "geometry": {"type": "Point", "coordinates": [122.55037435431123, 42.38347260242746]}}, {"type": "Feature", "properties": {"name": "阜新蒙古族自治县", "QUHUADAIMA": "210921", "Location": 1, "Alignment": 3}, "geometry": {"type": "Point", "coordinates": [121.74174163673506, 42.05547843895302]}}, {"type": "Feature", "properties": {"name": "海州区", "QUHUADAIMA": "210902", "Location": 8, "Alignment": 2}, "geometry": {"type": "Point", "coordinates": [121.65521807941907, 42.00836629149967]}}, {"type": "Feature", "properties": {"name": "新邱区", "QUHUADAIMA": "210903", "Location": 2, "Alignment": 2}, "geometry": {"type": "Point", "coordinates": [121.785989762203, 42.07903947900855]}}, {"type": "Feature", "properties": {"name": "细河区", "QUHUADAIMA": "210911", "Location": 1, "Alignment": 3}, "geometry": {"type": "Point", "coordinates": [121.66715409050462, 42.019566325766114]}}, {"type": "Feature", "properties": {"name": "太平区", "QUHUADAIMA": "210904", "Location": 6, "Alignment": 1}, "geometry": {"type": "Point", "coordinates": [121.67243873491394, 42.00533738288594]}}, {"type": "Feature", "properties": {"name": "清河门区", "QUHUADAIMA": "210905", "Location": 8, "Alignment": 2}, "geometry": {"type": "Point", "coordinates": [121.41389448000719, 41.78632746901047]}}]}