{"type": "FeatureCollection", "name": "点", "features": [{"type": "Feature", "properties": {"name": "乌鲁木齐县", "QUHUADAIMA": "650121", "Location": 4, "Alignment": 3}, "geometry": {"type": "Point", "coordinates": [87.41530347476026, 43.47022911198704]}}, {"type": "Feature", "properties": {"name": "新市区", "QUHUADAIMA": "650104", "Location": 4, "Alignment": 3}, "geometry": {"type": "Point", "coordinates": [87.57656715889293, 43.84159835646368]}}, {"type": "Feature", "properties": {"name": "头屯河区", "QUHUADAIMA": "650106", "Location": 1, "Alignment": 3}, "geometry": {"type": "Point", "coordinates": [87.43396499658142, 43.8742418105149]}}, {"type": "Feature", "properties": {"name": "达坂城区", "QUHUADAIMA": "650107", "Location": 6, "Alignment": 1}, "geometry": {"type": "Point", "coordinates": [88.31040817277551, 43.357337398931165]}}, {"type": "Feature", "properties": {"name": "天山区", "QUHUADAIMA": "650102", "Location": 9, "Alignment": 1}, "geometry": {"type": "Point", "coordinates": [87.63508966215193, 43.79149046319485]}}, {"type": "Feature", "properties": {"name": "沙依巴克区", "QUHUADAIMA": "650103", "Location": 7, "Alignment": 3}, "geometry": {"type": "Point", "coordinates": [87.6008638689628, 43.79465353493317]}}, {"type": "Feature", "properties": {"name": "水磨沟区", "QUHUADAIMA": "650105", "Location": 6, "Alignment": 1}, "geometry": {"type": "Point", "coordinates": [87.64491119261403, 43.83043769390283]}}, {"type": "Feature", "properties": {"name": "米东区", "QUHUADAIMA": "650109", "Location": 6, "Alignment": 1}, "geometry": {"type": "Point", "coordinates": [87.67942835732451, 43.955099691665346]}}]}