{"type": "FeatureCollection", "name": "点", "features": [{"type": "Feature", "properties": {"name": "奎屯市", "QUHUADAIMA": "654003", "Location": 6, "Alignment": 1}, "geometry": {"type": "Point", "coordinates": [84.90265870426164, 44.434090354958116]}}, {"type": "Feature", "properties": {"name": "伊宁市", "QUHUADAIMA": "654002", "Location": 2, "Alignment": 2}, "geometry": {"type": "Point", "coordinates": [81.33482196715573, 43.90791111368552]}}, {"type": "Feature", "properties": {"name": "霍尔果斯市", "QUHUADAIMA": "654004", "Location": 6, "Alignment": 1}, "geometry": {"type": "Point", "coordinates": [80.42339836907267, 44.20383709653571]}}, {"type": "Feature", "properties": {"name": "伊宁县", "QUHUADAIMA": "654021", "Location": 3, "Alignment": 1}, "geometry": {"type": "Point", "coordinates": [81.525147628419, 43.98013841408375]}}, {"type": "Feature", "properties": {"name": "察布查尔锡伯自治县", "QUHUADAIMA": "654022", "Location": 8, "Alignment": 2}, "geometry": {"type": "Point", "coordinates": [81.16486249585358, 43.835928976927164]}}, {"type": "Feature", "properties": {"name": "巩留县", "QUHUADAIMA": "654024", "Location": 6, "Alignment": 1}, "geometry": {"type": "Point", "coordinates": [82.23304561902408, 43.47836623243877]}}, {"type": "Feature", "properties": {"name": "昭苏县", "QUHUADAIMA": "654026", "Location": 6, "Alignment": 1}, "geometry": {"type": "Point", "coordinates": [81.12062074136897, 43.16093113407514]}}, {"type": "Feature", "properties": {"name": "特克斯县", "QUHUADAIMA": "654027", "Location": 6, "Alignment": 1}, "geometry": {"type": "Point", "coordinates": [81.84141690550419, 43.2135626399262]}}, {"type": "Feature", "properties": {"name": "新源县", "QUHUADAIMA": "654025", "Location": 6, "Alignment": 1}, "geometry": {"type": "Point", "coordinates": [83.2634485572998, 43.43725496280533]}}, {"type": "Feature", "properties": {"name": "尼勒克县", "QUHUADAIMA": "654028", "Location": 6, "Alignment": 1}, "geometry": {"type": "Point", "coordinates": [82.50144154279734, 43.785549243004354]}}, {"type": "Feature", "properties": {"name": "霍城县", "QUHUADAIMA": "654023", "Location": 6, "Alignment": 1}, "geometry": {"type": "Point", "coordinates": [80.8876486938007, 44.0499315793006]}}]}