{"type": "FeatureCollection", "name": "点", "features": [{"type": "Feature", "properties": {"name": "和田市", "QUHUADAIMA": "653201", "Location": 4, "Alignment": 3}, "geometry": {"type": "Point", "coordinates": [79.92770227685808, 37.10900105721362]}}, {"type": "Feature", "properties": {"name": "于田县", "QUHUADAIMA": "653226", "Location": 6, "Alignment": 1}, "geometry": {"type": "Point", "coordinates": [81.67642254305504, 36.846091255299896]}}, {"type": "Feature", "properties": {"name": "皮山县", "QUHUADAIMA": "653223", "Location": 7, "Alignment": 3}, "geometry": {"type": "Point", "coordinates": [78.28677446993511, 37.61611970899786]}}, {"type": "Feature", "properties": {"name": "洛浦县", "QUHUADAIMA": "653224", "Location": 8, "Alignment": 2}, "geometry": {"type": "Point", "coordinates": [80.18806759419748, 37.07350253514104]}}, {"type": "Feature", "properties": {"name": "策勒县", "QUHUADAIMA": "653225", "Location": 8, "Alignment": 2}, "geometry": {"type": "Point", "coordinates": [80.80642544617675, 37.00302442164024]}}, {"type": "Feature", "properties": {"name": "墨玉县", "QUHUADAIMA": "653222", "Location": 3, "Alignment": 1}, "geometry": {"type": "Point", "coordinates": [79.74619994507165, 37.27521329326101]}}, {"type": "Feature", "properties": {"name": "和田县", "QUHUADAIMA": "653221", "Location": 3, "Alignment": 1}, "geometry": {"type": "Point", "coordinates": [79.93553761143922, 37.10575265053992]}}, {"type": "Feature", "properties": {"name": "民丰县", "QUHUADAIMA": "653227", "Location": 6, "Alignment": 1}, "geometry": {"type": "Point", "coordinates": [82.68821808694354, 37.06574425869853]}}]}