{"type": "FeatureCollection", "name": "点", "features": [{"type": "Feature", "properties": {"name": "阿克苏市", "QUHUADAIMA": "652901", "Location": 8, "Alignment": 2}, "geometry": {"type": "Point", "coordinates": [80.26743327201604, 41.16508540889883]}}, {"type": "Feature", "properties": {"name": "柯坪县", "QUHUADAIMA": "652929", "Location": 6, "Alignment": 1}, "geometry": {"type": "Point", "coordinates": [79.04912088147587, 40.50528787415558]}}, {"type": "Feature", "properties": {"name": "阿瓦提县", "QUHUADAIMA": "652928", "Location": 8, "Alignment": 2}, "geometry": {"type": "Point", "coordinates": [80.38418999660635, 40.638557115232345]}}, {"type": "Feature", "properties": {"name": "乌什县", "QUHUADAIMA": "652927", "Location": 6, "Alignment": 1}, "geometry": {"type": "Point", "coordinates": [79.23717204803262, 41.21251086441203]}}, {"type": "Feature", "properties": {"name": "温宿县", "QUHUADAIMA": "652922", "Location": 1, "Alignment": 3}, "geometry": {"type": "Point", "coordinates": [80.24444010151431, 41.27487419275419]}}, {"type": "Feature", "properties": {"name": "库车市", "QUHUADAIMA": "652902", "Location": 6, "Alignment": 1}, "geometry": {"type": "Point", "coordinates": [82.96858827728029, 41.711674976838914]}}, {"type": "Feature", "properties": {"name": "新和县", "QUHUADAIMA": "652925", "Location": 4, "Alignment": 3}, "geometry": {"type": "Point", "coordinates": [82.61312903815039, 41.547584283272435]}}, {"type": "Feature", "properties": {"name": "沙雅县", "QUHUADAIMA": "652924", "Location": 8, "Alignment": 2}, "geometry": {"type": "Point", "coordinates": [82.78331201348364, 41.222115175168646]}}, {"type": "Feature", "properties": {"name": "拜城县", "QUHUADAIMA": "652926", "Location": 6, "Alignment": 1}, "geometry": {"type": "Point", "coordinates": [81.87245664638742, 41.797349717774075]}}]}